stop_id,stop_name,latitude,longitude,walk_time
176,Zimmerberg-Basistunnel,47.3516780901371,8.52195777551452,"[(8503086, 388), (8591392, 566)]"
8500926,"Oetwil a.d.L., Schweizäcker",47.4236270123012,8.4031825286317,"[(8590616, 147), (8590737, 360)]"
8502075,"Zürich Flughafen, Carterminal",47.4510244676285,8.56372943623189,"[(8573205, 115), (8573205, 115), (8503016, 147), (8580301, 279)]"
8502186,Dietikon Stoffelbach,47.3933267759652,8.39896044679575,"[(8590203, 551), (8502270, 552), (8590200, 582)]"
8502187,Rudolfstetten Hofacker,47.3646702178563,8.37695172233176,[]
8502188,Zufikon Hammergut,47.3559564133261,8.35459265490691,"[(8502274, 450), (8502268, 483), (8517377, 486), (8517377, 487), (8580847, 504), (8572568, 554)]"
8502208,Horgen Oberdorf,47.2587475534877,8.58981651208635,"[(8573554, 34), (8590655, 262), (8573555, 336), (8589111, 351), (8573553, 369), (8594182, 570), (8579192, 588)]"
8502209,Oberrieden Dorf,47.2767299516396,8.57765332313768,"[(8590734, 37), (8579186, 384), (8503203, 400), (8590735, 454), (8503673, 463), (8590736, 514)]"
8502220,Urdorf,47.3908820565997,8.43473136141437,"[(8590800, 507), (8590792, 550)]"
8502221,Birmensdorf ZH,47.3574290986674,8.4375520714069,"[(8583870, 60), (8583870, 60), (8583870, 60), (8583870, 60), (8573718, 131), (8573718, 131), (8502950, 467)]"
8502222,Bonstetten-Wettswil,47.3259034425176,8.46819360575248,"[(8573726, 60), (8573726, 60), (8573730, 443)]"
8502223,Hedingen,47.2987820476816,8.44596928562027,"[(8582722, 241), (8582721, 595)]"
8502224,Affoltern am Albis,47.2760717207306,8.44659810631924,"[(8573178, 34), (8573178, 34), (8573178, 34)]"
8502229,Urdorf Weihermatt,47.3809682263408,8.43033859967441,"[(8590834, 122), (8590849, 435)]"
8502268,Zufikon Belvédère,47.3576725137737,8.35928186069067,"[(8502188, 483), (8502188, 486), (8502188, 486)]"
8502270,Bergfrieden,47.397467944766,8.39896044679575,"[(8590220, 473), (8502186, 543), (8502186, 552)]"
8502273,Bremgarten,47.3515198524717,8.34648985104303,"[(8572747, 36), (8582529, 339), (8580847, 443), (8517377, 457), (8517377, 458), (8582462, 551)]"
8502274,Zufikon,47.3525849045311,8.35468248643534,"[(8576164, 331), (8582529, 421), (8517377, 430), (8517377, 431), (8502188, 443), (8502188, 443), (8502188, 450), (8580847, 457)]"
8502275,Widen Heinrüti,47.3619260114885,8.35487113264503,[]
8502276,Berikon-Widen,47.3619260114885,8.36636956828336,"[(8572560, 39), (8580729, 355), (8580728, 515)]"
8502277,Rudolfstetten,47.369762745833,8.38153313028141,[]
8502278,Reppischhof,47.384003394493,8.39617566941459,[]
8502471,"Kloten, Waldeggweg",47.4411280309022,8.57578482734645,"[(8573214, 381), (8580432, 442), (8503309, 484), (8588739, 536), (8588740, 568)]"
8502495,"Zürich Wollishofen, Bahnhof",47.3481237143728,8.53332146386021,"[(8503009, 94), (8591080, 117), (8591081, 150), (8591241, 390), (8591082, 462), (8591216, 464), (8503681, 465), (8591304, 488), (8591392, 571)]"
8502508,"Spreitenbach, Raiacker",47.4163939893986,8.37617917118731,"[(8590268, 420), (8590270, 442)]"
8502553,"Unterlunkhofen, Breitenäcker",47.3229988969571,8.37978141547713,"[(8572646, 318), (8510050, 449)]"
8502559,"Waldegg, Birmensdorferstrasse",47.3683025730349,8.46346846735736,"[(8503709, 133), (8575014, 312), (8503055, 387), (8574684, 448), (8574739, 461)]"
8502560,"Berikon, Kirche",47.3510512227562,8.37141810018081,[]
8502570,"Rottenschwil, Hecht",47.3190589331876,8.372091836644,[]
8502572,"Zürich, Goldbrunnenplatz",47.3702920484894,8.51391785372053,"[(8591447, 246), (8591390, 389), (8591195, 450), (8591075, 481), (8591341, 485)]"
8502574,"Affoltern a.A., Stigeli",47.2784669105587,8.45910265507593,"[(8582763, 265), (8580268, 396), (8502953, 562)]"
8502575,"Widen, Dorf",47.3675724714769,8.36359377405504,"[(8580728, 290), (8580729, 459)]"
8502750,"Bellikon, Dorf",47.3895319390895,8.34336371385385,"[(8572561, 146)]"
8502758,"Hausen am Albis, Post",47.2447475336943,8.53297112089936,[]
8502758,Post,47.2447475336943,8.53297112089936,[]
8502762,"Langnau a.A., Albispasshöhe",47.2761509526624,8.52069115096373,"[(8573158, 322)]"
8502763,"Hausen am Albis, Riedmatt",47.2629785384073,8.51724162027223,[]
8502764,"Hausen am Albis, Tüfenbach",47.2590158104091,8.5220386238901,[]
8502771,"Aeugst am Albis, Dorf",47.2678309520619,8.48534244452871,"[(8583047, 580), (8573733, 588)]"
8502776,"Gattikon, Obstgarten",47.2847255843239,8.5511170896411,"[(8573163, 374), (8573162, 535)]"
8502779,"Ottenbach, Zentrum",47.2801672466905,8.40430542273701,"[(8582790, 190), (8572605, 532)]"
8502876,"Aesch ZH, Gemeindehaus",47.3382079319594,8.43870191497073,"[(8583755, 536)]"
8502879,"Jonen, Taverne",47.2961806346557,8.39551091610425,"[(8570706, 432), (8572603, 464)]"
8502883,"Zwillikon, Gemeindeplatz",47.2874006824704,8.43218912915996,[]
8502885,"Bonstetten, Dorfplatz",47.3150882242354,8.46778038072173,"[(8573729, 357), (8583805, 457)]"
8502894,"Oberwil-Lieli, Dreispitz",47.3371730284335,8.3864199654277,"[(8581346, 455)]"
8502950,"Birmensdorf ZH, Zentrum",47.3539359682156,8.43717477898752,"[(8573719, 419), (8573718, 427), (8573718, 427), (8583870, 432), (8583870, 432), (8583870, 432), (8583870, 432), (8502221, 467)]"
8502953,"Affoltern a.A., Kronenplatz",47.2812215495339,8.45441344929217,"[(8580268, 270), (8502574, 562), (8582723, 586)]"
8502955,"Oberlunkhofen, Post",47.3117750117374,8.38982458035498,"[(8573723, 73), (8572602, 227), (8573722, 279)]"
8502963,"Hausen am Albis, Heisch",47.2490528118645,8.5297641353346,[]
8502979,"Oberwil-Lieli, Lieli Dorf",47.3412881718265,8.39690330479483,"[(8572597, 262), (8572596, 378)]"
8502992,"Langnau am Albis, Unteralbis",47.2857676090264,8.52789563954337,"[(8503887, 451), (8503862, 542), (8590706, 542)]"
8503000,Zürich HB,47.3781762039461,8.54021154209037,"[(8503088, 130), (8503088, 137), (8587348, 148), (8587349, 161), (8503446, 170), (8591067, 269), (8591368, 327), (8591379, 366), (8588078, 382), (8591262, 396), (8503499, 410), (8591174, 437), (8596126, 467), (8503500, 588)]"
8503001,Zürich Altstetten,47.3914841248792,8.48896265512422,"[(8591056, 73), (8591057, 116), (8591097, 255), (8591070, 378), (8591361, 478), (8591167, 500), (8591372, 503), (8591896, 540), (8591258, 553), (8591413, 584)]"
8503003,Zürich Stadelhofen,47.3666111556789,8.54848502585826,"[(8503059, 48), (8576195, 177), (8576193, 312), (8591375, 362), (8505333, 364), (8576196, 472), (8591239, 514), (8530813, 558)]"
8503004,Zürich Tiefenbrunnen,47.3501261233109,8.56138483334001,"[(8576182, 53), (8505332, 80), (8576200, 468), (8591440, 521)]"
8503006,Zürich Oerlikon,47.411530894433,8.54413717988252,"[(8580449, 60), (8591062, 118), (8591382, 272), (8591063, 286), (8591272, 421), (8591273, 545), (8591314, 569)]"
8503007,Zürich Seebach,47.4187524287319,8.54465820274738,"[(8591127, 268), (8591355, 367), (8591187, 561), (8591191, 564)]"
8503008,Zürich Affoltern,47.42091018661,8.50858186093212,"[(8591054, 112), (8591153, 193), (8576262, 296), (8591090, 487), (8591407, 573)]"
8503009,Zürich Wollishofen,47.3474420259121,8.53359994159833,"[(8591080, 70), (8591081, 82), (8502495, 94), (8503681, 382), (8591304, 400), (8591241, 476), (8591216, 494), (8591082, 557), (8591279, 562), (8591077, 582)]"
8503010,Zürich Enge,47.3640982664424,8.53082414737001,"[(8591058, 68), (8591059, 69), (8507183, 301), (8591404, 314), (8591317, 394), (8591283, 455), (8591414, 509), (8591415, 578)]"
8503011,Zürich Wiedikon,47.3714783972162,8.52348491149773,"[(8573710, 64), (8591427, 325), (8591079, 405), (8591227, 410), (8591341, 422), (8591218, 438), (8506517, 508), (8591381, 584)]"
8503015,Zürich Wipkingen,47.3930409564212,8.52937785976238,"[(8591066, 55), (8591292, 382), (8591323, 394), (8591251, 449), (8591240, 459), (8591437, 529)]"
8503016,Zürich Flughafen,47.4503866318972,8.56239992961121,"[(8573205, 126), (8573205, 126), (8502075, 147), (8580301, 422)]"
8503020,Zürich Hardbrücke,47.385195516951,8.51712483928528,"[(8591060, 2), (8591177, 447), (8594239, 452), (8591391, 540)]"
8503051,Zürich Binz,47.362765717286,8.5182926491548,"[(8591824, 27), (8591308, 329), (8503091, 338), (8591269, 468), (8591245, 549), (8591366, 560)]"
8503052,Zürich Friesenberg,47.3647979933886,8.50750388259102,"[(8591149, 82), (8503053, 360), (8591151, 425), (8591351, 436), (8591083, 459), (8591195, 486), (8591084, 503)]"
8503053,Zürich Schweighof,47.3649440221893,8.50353332903466,"[(8591351, 79), (8503052, 360), (8591151, 409), (8591149, 414), (8591150, 521), (8580912, 550)]"
8503054,Zürich Triemli,47.3649926983664,8.49537662625372,"[(8591401, 189), (8503610, 421)]"
8503055,Uitikon Waldegg,47.3659236216092,8.46592086808334,"[(8575014, 90), (8574739, 350), (8502559, 387), (8503709, 479), (8574898, 530)]"
8503056,Ringlikon,47.3602952403085,8.47742828687451,[]
8503057,Uetliberg,47.352073682225,8.48755230012795,[]
8503059,"Zürich Stadelhofen, Bahnhof",47.3663495287263,8.54812569974456,"[(8503003, 48), (8576195, 132), (8576193, 290), (8505333, 320), (8591375, 404), (8576196, 448), (8591239, 553), (8530813, 574)]"
8503061,Langwies ZH,47.2960526930082,8.69438939432526,[]
8503062,Egg,47.3014990777941,8.68961035701308,"[(8590601, 24)]"
8503063,Hinteregg,47.3057327365344,8.68433724629457,"[(8590648, 30)]"
8503064,Scheuren,47.3225969975727,8.65955272760226,"[(8590785, 42)]"
8503065,Forch,47.3253371600043,8.64797344358835,"[(8590613, 154)]"
8503066,Zumikon,47.3316877011018,8.62380876244217,"[(8576226, 190)]"
8503067,Zollikerberg,47.3460481890667,8.60339903918413,"[(8506638, 110), (8591028, 112), (8591023, 501)]"
8503068,Maiacher,47.328168511864,8.63106714993886,"[(8590711, 66)]"
8503072,Neuhaus bei Hinteregg,47.3127799602696,8.67403356998428,"[(8590722, 23)]"
8503074,Neue Forch,47.3258121070389,8.63784044718207,[]
8503075,Waltikon,47.3367895002108,8.61701749889328,"[(8576225, 140)]"
8503077,Spital Zollikerberg,47.3473081217871,8.59679642184493,"[(8591023, 147), (8591903, 155), (8591024, 384), (8590879, 407), (8503078, 421), (8591028, 516)]"
8503078,Waldburg,47.3454699490061,8.5930234976511,"[(8590879, 27), (8576189, 355), (8503077, 421), (8591023, 465), (8591903, 472)]"
8503081,Felsenegg,47.3101426909703,8.5074140510626,[]
8503082,Adliswil (Luftseilbahnstation),47.3131697533444,8.52005334711192,"[(8590469, 213), (8503096, 400), (8590464, 428), (8590464, 428), (8590478, 467), (8590466, 480)]"
8503083,"Zürich, Römerhof",47.3680896277911,8.56027990554039,"[(8591119, 263), (8591199, 326), (8591231, 436), (8591198, 455), (8591202, 563), (8591394, 572)]"
8503084,"Zürich, Dolder",47.3732000763623,8.57452718594851,"[(8591421, 542)]"
8503086,Zürich Brunau,47.3516415737949,8.52623375626752,"[(8591392, 241), (176, 388), (8591098, 475), (8591216, 518), (8591082, 521)]"
8503087,Zürich Saalsporthalle,47.3577942209058,8.52196675866736,"[(8591365, 36), (8591329, 142), (8591366, 318), (8591245, 460), (8591204, 467), (8591098, 587), (8591415, 600)]"
8503088,Zürich HB SZU,47.3774279898193,8.53916949636064,"[(8587348, 30), (8503000, 137), (8591067, 163), (8587349, 234), (8591262, 259), (8503446, 307), (8591368, 356), (8588078, 439), (8503499, 457), (8591367, 484), (8591379, 503), (8596126, 514), (8591174, 568), (8591327, 576), (8591316, 585)]"
8503089,Wildpark-Höfli,47.296540088104,8.53564810044641,[]
8503090,Zürich Selnau,47.3722388631333,8.53172246265426,"[(8591064, 211), (8591369, 258), (8591381, 274), (8591427, 442), (8591367, 561)]"
8503091,Zürich Giesshübel,47.3626135976618,8.52201167443157,"[(8503051, 338), (8591824, 338), (8591366, 352), (8591415, 371), (8591269, 379), (8591414, 426), (8507183, 543)]"
8503093,Zürich Manegg,47.3379339888824,8.51963113892832,"[(8591268, 145), (8591154, 376)]"
8503094,Zürich Leimbach,47.3330453878964,8.51856214374007,"[(8591061, 28), (8591154, 284), (8591270, 462), (8591268, 548)]"
8503095,Sood-Oberleimbach,47.3196191932506,8.52151760102524,"[(8590479, 473), (8590466, 549), (8590471, 560)]"
8503096,Adliswil,47.3122744430936,8.52425746264218,"[(8590464, 66), (8590464, 66), (8590478, 150), (8590474, 325), (8590465, 377), (8503082, 400), (8595717, 533), (8590485, 561), (8590469, 565)]"
8503097,Langnau-Gattikon,47.287309280438,8.54383175268587,"[(8573161, 17), (8573160, 390), (8573162, 558)]"
8503098,Sihlwald,47.2682942245761,8.55751309446492,"[(8590807, 24)]"
8503099,Sihlau,47.3032900481924,8.52516476107927,"[(8590475, 263), (8590467, 403), (8590486, 427)]"
8503100,Zollikon,47.337337396819,8.56973916548349,"[(8576184, 57), (8503655, 270), (8576203, 489), (8576204, 498)]"
8503101,Küsnacht ZH,47.319156370147,8.58063572988137,"[(8576223, 36), (8590705, 163), (8503657, 213), (8576216, 353), (8590704, 453), (8576217, 538), (8576209, 539)]"
8503102,Erlenbach ZH,47.3057936500132,8.59152331112642,"[(8587965, 25), (8587971, 224), (8587966, 268), (8587964, 356), (8503659, 420), (8587974, 433), (8587973, 464), (8587976, 581)]"
8503103,Herrliberg-Feldmeilen,47.2818248694552,8.61273253498743,"[(8588011, 64), (8590647, 127), (8595723, 144), (8503660, 348), (8587982, 517), (8587998, 526), (8588032, 548)]"
8503104,Meilen,47.2698120232242,8.64430831722863,"[(8576080, 72), (8588023, 346), (8505448, 382), (8588014, 390), (8503661, 471), (8588028, 521), (8530644, 583)]"
8503111,Winkel am Zürichsee,47.2972102490254,8.59898831113849,"[(8587977, 386), (8587967, 499)]"
8503125,Uster,47.3503695721055,8.71870678906976,"[(8573504, 121), (8581548, 228), (8580879, 332), (8576095, 403), (8587952, 434), (8588051, 494), (8581545, 570), (8588055, 596)]"
8503126,Nänikon-Greifensee,47.3693612023433,8.68641235460117,"[(8590721, 347)]"
8503127,Schwerzenbach ZH,47.3843865796517,8.6586723786237,"[(8576127, 96), (8576127, 96)]"
8503128,Dübendorf,47.4000826120679,8.62342248686994,"[(8587653, 51), (8590548, 116), (8590575, 353), (8590550, 451), (8590558, 473), (8590586, 477), (8590591, 503), (8590589, 525), (8590568, 564)]"
8503129,Wallisellen,47.4127223942356,8.59192755300433,"[(8587655, 55), (8590899, 217), (8594187, 373), (8594190, 471), (8590886, 493), (8590884, 503), (8590895, 539), (8587651, 572), (8587651, 572), (8594186, 579)]"
8503141,Küsnacht Goldbach,47.3268594110503,8.5759644904033,"[(8576207, 516), (8576208, 580)]"
8503147,Stettbach,47.3972125517017,8.59614065168743,"[(8591065, 8), (8591065, 8), (8590566, 382), (8596113, 459), (8591271, 510)]"
8503150,"Volketswil, Dorf",47.3895866742558,8.69322158445574,"[(8587858, 295), (8576140, 405), (8576129, 558)]"
8503151,"Volketswil, Zentrum",47.3891670365281,8.6815075531492,"[(8589128, 389), (8588097, 469), (8503156, 489), (8576129, 505), (8576130, 570), (8576132, 574)]"
8503152,"Uster, Brandschenke",47.3611410570261,8.71073873249851,"[(8588053, 269), (8588054, 379), (8591857, 403), (8587859, 423), (8588052, 425)]"
8503154,"Volketswil, Volkiland Chliriet",47.3819049501849,8.66755671678488,"[(8576139, 453), (8588096, 503)]"
8503155,"Volketswil, Chrummacher",47.3797090972903,8.68346588046885,"[(8576128, 482)]"
8503156,"Volketswil, Hegnau",47.388388569287,8.67623444243068,"[(8589128, 104), (8590851, 187), (8588097, 426), (8503151, 489), (8589106, 556)]"
8503157,"Gutenswil, Unterdorf",47.3849035710867,8.71449369038666,"[(8588098, 392), (8588095, 416)]"
8503168,"Riedikon, Chis/Naturstation",47.3263540285675,8.71009194549386,[]
8503189,"Riedikon, Dorf",47.3322052091535,8.71133162058612,[]
8503200,Kilchberg ZH,47.3244298775167,8.54801790191045,"[(8590673, 9), (8590680, 264), (8590689, 357), (8590674, 390), (8503677, 423), (8590690, 446), (8590686, 457), (8590685, 482), (8590675, 509), (8590684, 578)]"
8503200,Kilchberg,47.3244298775167,8.54801790191045,"[(8590673, 9), (8590680, 264), (8590689, 357), (8590674, 390), (8503677, 423), (8590690, 446), (8590686, 457), (8590685, 482), (8590675, 509), (8590684, 578)]"
8503201,Rüschlikon,47.3071337287872,8.5551595084202,"[(8590771, 199), (8590784, 277), (8590776, 394), (8503675, 458), (8590773, 492), (8590772, 590)]"
8503202,Thalwil,47.2959795833563,8.56477148196161,"[(8573168, 33), (8573167, 144), (8590824, 222), (8590813, 277), (8503674, 312), (8590822, 441), (8590811, 466)]"
8503203,Oberrieden,47.279673606346,8.5784618068935,"[(8579186, 71), (8503673, 344), (8590735, 350), (8590734, 395), (8502209, 400), (8590819, 598)]"
8503204,Horgen,47.2614849296062,8.59691320283188,"[(8503855, 114), (8503855, 114), (8590660, 130), (8503672, 131), (8573552, 153), (8590651, 266), (8577912, 325), (8580724, 417), (8589111, 446), (8594182, 574)]"
8503254,"Uster, Niederuster",47.3445386648561,8.70217778783966,"[(8587010, 336), (8503785, 464), (8576097, 515), (8581538, 555)]"
8503303,Illnau,47.4088195240113,8.72273124154318,"[(8575927, 44), (8594339, 211), (8503382, 409), (8575926, 556)]"
8503305,Effretikon,47.4258149579094,8.68668184918644,"[(8575918, 102), (8575918, 102), (8575919, 250)]"
8503306,Dietlikon,47.4201990480087,8.61927227025673,"[(8588314, 37), (8590539, 273), (8595081, 387), (8590541, 528), (8595075, 557), (8595080, 567), (8595073, 591)]"
8503307,Bassersdorf,47.4385700854802,8.62621624740394,"[(8503700, 21), (8588316, 528)]"
8503308,Kloten,47.4486067255649,8.58380678283476,"[(8587420, 48), (8590693, 92), (8590697, 408), (8590699, 430), (8590698, 508), (8576152, 565), (8580434, 593)]"
8503309,Kloten Balsberg,47.4422884829467,8.57071832914331,"[(8587799, 211), (8573213, 332), (8573213, 332), (8573214, 349), (8502471, 484)]"
8503310,Glattbrugg,47.4308286569336,8.55885158423844,"[(8590620, 57), (8590629, 209), (8503340, 291), (8590742, 302), (8590621, 389), (8590622, 520)]"
8503311,Rümlang,47.4540677487502,8.53276450838398,"[(8573241, 19), (8590766, 359), (8595712, 443), (8595709, 449), (8590767, 597)]"
8503312,Oberglatt,47.4702045216066,8.51062103662735,"[(8573237, 33)]"
8503312,Oberglatt ZH,47.4702045216066,8.51062103662735,"[(8573237, 33)]"
8503313,Niederglatt,47.4874715144109,8.50331773336644,"[(8582720, 404), (8583769, 438), (8573263, 446)]"
8503313,Niederglatt ZH,47.4874715144109,8.50331773336644,"[(8582720, 404), (8583769, 438), (8573263, 446)]"
8503314,Niederhasli,47.4783287292926,8.48871112684463,"[(8590723, 17), (8573264, 449)]"
8503315,Dielsdorf,47.4824207169514,8.45944401488394,"[(8573277, 83), (8594552, 446), (8576283, 540), (8573276, 565)]"
8503316,Steinmaur,47.489984590852,8.44685861775167,"[(8573275, 129), (8573274, 499)]"
8503340,Opfikon,47.4299535729635,8.56179805837077,"[(8590742, 49), (8590629, 99), (8590620, 236), (8590622, 243), (8503310, 291), (8590625, 429), (8590621, 472), (8590631, 580), (8590626, 584)]"
8503350,"Kindhausen ZH, Geeren",47.4082845286062,8.68363656037286,"[(8576133, 537)]"
8503351,"Bisikon, Dorf",47.4125217864622,8.6954134737493,[]
8503370,"Effretikon, Eselriet",47.424319871583,8.70025539313138,"[(8575921, 238)]"
8503371,"Illnau, Löwen",47.4163332034833,8.71742219821329,"[(8575923, 231), (8575922, 256)]"
8503372,"Effretikon, Wattspitz",47.4270972948706,8.69468583836906,"[(8575920, 313), (8575921, 457)]"
8503377,"Lindau, Dorf",47.4414743464957,8.67149133772987,"[(8590710, 106), (8575939, 571)]"
8503378,"Tagelswangen, Dorf",47.4304032707099,8.67192252906631,"[(8588279, 382), (8575938, 456), (8595538, 539), (8575937, 588)]"
8503446,Zürich Landesmuseum (See),47.3790460655592,8.54157698132242,"[(8503000, 170), (8587349, 199), (8591379, 199), (8591174, 278), (8503088, 299), (8503088, 307), (8587348, 315), (8588078, 364), (8591368, 376), (8503499, 402), (8591067, 423), (8596126, 472), (8503500, 526), (8591373, 541), (8591262, 565)]"
8503447,Zürich Storchen,47.371028196226,8.54196325689465,"[(8591309, 126), (8591183, 175), (8530822, 272), (8591299, 326), (8591327, 399), (8591316, 418), (8591093, 431), (8591287, 541), (8576193, 598)]"
8503499,Zürich Central (Polybahn),47.3765398519527,8.54403836520125,"[(8588078, 42), (8503500, 218), (8587349, 249), (8591327, 360), (8591123, 393), (8503446, 402), (8503000, 410), (8591067, 417), (8591174, 417), (8587348, 436), (8503088, 439), (8503088, 457), (8530822, 487), (8591379, 514), (8591287, 585)]"
8503500,Zürich Polyterrasse,47.3768561767436,8.54640093439881,"[(8591123, 176), (8503499, 218), (8588078, 223), (8591174, 410), (8587349, 433), (8591173, 492), (8591327, 499), (8503446, 526), (8591287, 551), (8591379, 564), (8503000, 588)]"
8503508,Dietikon,47.4057857849267,8.40498814235303,"[(8587020, 43), (8587020, 43), (8590217, 230), (8595511, 376), (8590529, 401), (8590223, 581), (8590514, 590)]"
8503509,Schlieren,47.3991766141354,8.4472448933239,"[(8590786, 123), (8590805, 210), (8590787, 312), (8596007, 328), (8590789, 353), (8590788, 366), (8590790, 570)]"
8503512,Glanzenberg,47.3988786651024,8.42043916524204,"[(8590619, 81), (8590512, 326), (8590526, 445), (8590840, 545)]"
8503525,Otelfingen Golfpark,47.4558231741326,8.40211353344345,[]
8503526,Regensdorf-Watt,47.4365649581788,8.47208331093326,"[(8590878, 71), (8576280, 280), (8576265, 383), (8590754, 512), (8576248, 569)]"
8503527,Buchs-Dällikon,47.4534056526775,8.43560272724009,"[(8576260, 156), (8595356, 319), (8576259, 470), (8576277, 579)]"
8503528,Otelfingen,47.4549363575613,8.38753387638016,"[(8576235, 72), (8595143, 590)]"
8503551,"Birmensdorf ZH, Landikon Bach",47.3522927781054,8.46169878624739,"[(8583731, 85)]"
8503565,"Uster, Buchholz",47.3584757756574,8.72887571808741,"[(8588057, 225), (8503872, 347), (8505296, 373)]"
8503567,"Uster, Spital",47.3538507670231,8.72349480953479,"[(8588058, 418), (8503872, 442), (8588050, 584)]"
8503578,"Birmensdorf ZH, Sternen/WSL",47.360094432909,8.45627296193055,"[(8583613, 466), (8503579, 504)]"
8503579,"Birmensdorf ZH, Obere Risi",47.3594554951892,8.45079323869666,"[(8503698, 341), (8503578, 504)]"
8503580,"Uitikon, Schlössli",47.3681078802743,8.44785574771718,[]
8503598,"Arni AG, Dorf",47.3183951391194,8.4197115298618,"[(8573720, 437)]"
8503610,"Zürich, Triemli",47.3681504693771,8.49537662625372,"[(8591401, 322), (8591214, 370), (8503054, 421), (8591344, 561), (8580912, 595)]"
8503633,"Uster, See",47.3433882323404,8.69075121742407,"[(8530646, 62)]"
8503651,Zürich Bürkliplatz (See),47.3656619912465,8.5410020595405,"[(8591105, 119), (8505333, 351), (8591093, 353), (8576193, 419), (8591299, 575), (8591384, 585)]"
8503653,Zürichhorn (See),47.3526214202206,8.5531293158778,"[(8591109, 253), (8576199, 482), (8576200, 526)]"
8503655,Zollikon (See),47.3386827632592,8.5675203267314,"[(8576184, 238), (8503100, 270), (8576203, 518), (8576183, 549)]"
8503657,Küsnacht ZH (See),47.3189980349967,8.57830011014234,"[(8576223, 177), (8503101, 213), (8590705, 339), (8576216, 566)]"
8503659,Erlenbach ZH (See),47.3030281073303,8.58930447237433,"[(8587966, 211), (8587974, 366), (8587965, 412), (8503102, 420), (8587971, 466)]"
8503660,Herrliberg (See),47.2834824402845,8.60977707770227,"[(8590647, 223), (8595723, 224), (8503103, 348), (8588011, 396), (8587998, 397), (8588005, 489)]"
8503661,Meilen (See),47.2675505483071,8.64032878051943,"[(8530644, 177), (8588028, 375), (8503104, 471), (8576080, 484), (8505448, 580)]"
8503672,Horgen (See),47.2623506182085,8.59759592244791,"[(8503204, 131), (8503855, 200), (8503855, 200), (8590660, 237), (8573552, 284), (8590651, 327), (8577912, 425), (8580724, 486), (8589111, 538)]"
8503673,Oberrieden (See),47.2786253671307,8.58192930389069,"[(8579186, 274), (8503203, 344), (8502209, 463), (8590734, 487)]"
8503674,Thalwil (See),47.2966923981501,8.56805033274911,"[(8573168, 286), (8503202, 312), (8573167, 402), (8590824, 489), (8590813, 580)]"
8503675,Rüschlikon (See),47.3097711482299,8.55838446029063,"[(8503201, 458), (8590771, 483), (8590773, 522)]"
8503677,Kilchberg ZH (See),47.3225543717011,8.55178184295144,"[(8590674, 123), (8590689, 376), (8590673, 415), (8503200, 423), (8503200, 423), (8590681, 469)]"
8503681,Zürich Wollishofen (See),47.3454699490061,8.53665421356476,"[(8591080, 352), (8591304, 360), (8587347, 370), (8503009, 382), (8591081, 398), (8502495, 465)]"
8503682,Küsnacht ZH Heslibach,47.3082301316054,8.58408526057287,"[(8590701, 537)]"
8503689,"Stallikon, Wolfenhof",47.294432072012,8.48573770325378,"[(8573716, 599)]"
8503690,"Stallikon, Dorf",47.3271395004643,8.48995080193689,"[(8583053, 469)]"
8503691,"Stallikon, Bleiki",47.3337637910029,8.48881892467874,[]
8503692,"Wettswil a.A., Dorf",47.3377148333975,8.47434706544956,"[(8579434, 18), (8579442, 318), (8579994, 362), (8579443, 364), (8579453, 527)]"
8503693,"Wettswil a.A., Heidenchilen",47.3456282048101,8.46669341922779,"[(8579497, 339), (8579495, 387), (8573712, 547)]"
8503694,"Stallikon, Gamlikon",47.3114582967247,8.49334643371133,[]
8503695,"Hausen am Albis, Türlersee",47.2675139737948,8.51260631340553,[]
8503696,"Stallikon, Sellenbüren",47.3432969270986,8.48207257689406,[]
8503697,"Aeugstertal, Kloster",47.2843051124036,8.48686059735908,[]
8503698,"Birmensdorf ZH, Untere Risi",47.3597049860768,8.44704726396136,"[(8503579, 341), (8582752, 495)]"
8503699,"Uitikon, Dorf",47.37053540425,8.4541439547069,"[(8574658, 326), (8574684, 449)]"
8503700,"Bassersdorf, Bahnhof",47.4387159099396,8.62613539902836,"[(8503307, 21), (8503307, 21), (8588316, 517)]"
8503709,"Waldegg, Post",47.3683329937139,8.46200421344404,"[(8502559, 133), (8574684, 322), (8575014, 393), (8574739, 455), (8503055, 479)]"
8503781,"Bachenbülach, alte Post",47.5052547110926,8.54596974306238,"[(8580620, 434), (8573206, 593)]"
8503785,"Uster, Schlyffi",47.3457255927614,8.69737180106896,"[(8581538, 94), (8576099, 381), (8587010, 425), (8503254, 464)]"
8503788,"Winkel, Zentrum",47.4923761509632,8.55233879842767,"[(8573209, 335), (8583774, 465)]"
8503791,"Thalwil, Ebnet",47.2883695343036,8.55718970096259,"[(8573164, 346), (8573163, 432), (8573165, 464)]"
8503855,"Horgen, Bahnhof",47.2616129548689,8.59567352773963,"[(8503204, 114), (8573552, 151), (8503672, 200), (8590660, 212), (8589111, 341), (8590651, 364), (8577912, 392), (8594182, 462), (8580724, 505), (8573555, 574)]"
8503855,Bahnhof,47.2616129548689,8.59567352773963,"[(8503204, 114), (8573552, 151), (8503672, 200), (8590660, 212), (8589111, 341), (8590651, 364), (8577912, 392), (8594182, 462), (8580724, 505), (8573555, 574)]"
8503857,"Winkel, Bühlhof",47.4830763767425,8.56076499579388,"[(8503989, 499)]"
8503860,"Riedt b. Neerach, Riedacher",47.5010309886109,8.47403265510007,"[(8582751, 86)]"
8503862,"Langnau a.A.,Schwerzi-Wildpark",47.2877053547711,8.53314180080336,"[(8590706, 205), (8502992, 542), (8590707, 551)]"
8503871,"Höri, Oberhöri",47.5037376085068,8.49864649388837,[]
8503872,"Uster, Reithalle",47.3562972036718,8.72678264347512,"[(8588057, 250), (8503565, 347), (8503567, 442), (8588059, 465), (8588058, 587)]"
8503879,"Widen, Imbismatt",47.3724396243058,8.35652403276804,[]
8503885,"Niederhasli, Hofstetterstrasse",47.4822568007251,8.49379559135345,[]
8503887,"Langnau am Albis,Oberrenggstr.",47.2826719433898,8.5298898994744,"[(8590708, 414), (8502992, 451), (8590706, 595)]"
8503896,"Horgenberg, Moorschwand",47.2527053159758,8.58653766129886,[]
8503898,"Horgen, Stotzweid/Feller",47.251071171652,8.59718269741716,"[(8573556, 228), (8588984, 417), (8588985, 489)]"
8503989,"Winkel, Oberrüti",47.4799012073586,8.56368452046768,"[(8503857, 499)]"
8505296,"Uster, Sportanlage",47.3610132726362,8.72715095274166,"[(8503565, 373), (8588057, 595)]"
8505332,Zürich Tiefenbrunnen (See),47.3498644146043,8.56058533273703,"[(8503004, 80), (8503004, 81), (8576182, 82), (8576200, 470)]"
8505333,Zürich Bellevue (See),47.3654429508751,8.54485583210991,"[(8576193, 221), (8576195, 253), (8503059, 320), (8503651, 351), (8503003, 364), (8591105, 397), (8576196, 540), (8591093, 589)]"
8505363,"Dietlikon, Mäenriet",47.4124306008581,8.61849073595944,"[(8590542, 179), (8590538, 271), (8590544, 359), (8590545, 396), (8590541, 573)]"
8505448,"Meilen, Friedhof",47.2718417823056,8.64133489363778,"[(8588028, 341), (8588023, 370), (8503104, 382), (8576080, 454), (8530644, 577), (8503661, 580)]"
8506517,"Zürich, Hertersteg",47.3676819873548,8.5229908380914,"[(8591269, 323), (8591341, 472), (8503011, 508), (8573710, 512)]"
8506549,"Adliswil, Dietlimoos",47.3224752092768,8.53225246867196,"[(8590472, 297), (8590679, 302), (8590477, 369), (8590476, 528), (8506636, 538)]"
8506636,"Adliswil, Sunnau",47.3260617569731,8.52954853966638,"[(8590477, 190), (8590472, 486), (8506549, 538)]"
8506638,"Zollikerberg, Station/Q'treff",47.3463525233964,8.60453091644228,"[(8503067, 110), (8591028, 218), (8591023, 600)]"
8506895,"Lufingen, Dorf",47.4886612950571,8.59365231835008,"[(8573228, 402)]"
8506898,"Oberembrach, Dorf",47.4869919523461,8.61956871430053,[]
8507183,"Zürich, Kantonsschule Enge",47.3642382125742,8.52750936397115,"[(8591059, 270), (8503010, 301), (8591414, 355), (8591058, 368), (8591415, 401), (8591404, 521), (8503091, 543), (8591269, 556), (8591283, 596)]"
8509649,"Zürich, Leutschenpark",47.41655203245,8.55508764319746,"[(8591294, 159), (8591172, 289), (8591318, 394), (8591256, 427), (8591830, 533)]"
8510010,"Zürich, Klinik Hirslanden",47.3517754669262,8.5766202605608,"[(8591142, 348), (8530811, 401), (8591212, 529), (8591315, 585)]"
8510050,"Unterlunkhofen, Mühlegg",47.3202951512883,8.38272788960945,"[(8572646, 237), (8502553, 449)]"
8510277,"Brüttisellen, Gemeindehaus",47.4200592504018,8.62947713188575,"[(8590507, 220), (8590508, 238), (8588319, 517)]"
8517376,Dietikon Schöneggstrasse,47.4019614440302,8.40099063933815,"[(8590223, 83), (8590217, 396), (8590529, 410), (8590521, 419), (8590513, 551)]"
8517377,Bibenlos-Sonnenhof,47.3537899089443,8.35028074154254,"[(8580847, 27), (8582529, 205), (8572568, 382), (8502274, 430), (8502273, 458), (8502273, 458), (8572747, 466), (8502188, 483), (8502188, 483), (8502188, 486)]"
8530473,"Zürich, Rigiblick",47.3873303219428,8.55341677676876,"[(8591156, 81), (8591171, 202), (8591377, 290), (8591164, 331), (8591336, 394), (8591362, 495)]"
8530643,Horgen Autoquai,47.2592291956261,8.60463871427639,"[(8590659, 176), (8590661, 405), (8590663, 413), (8580724, 451), (8590658, 475), (8590651, 524), (8577912, 594)]"
8530644,Meilen Autoquai,47.2679772490834,8.63847825103388,"[(8503661, 177), (8588028, 283), (8505448, 577), (8503104, 583)]"
8530645,Maur (See),47.3402837655282,8.67901921981184,"[(8590716, 43), (8590714, 559)]"
8530646,Uster (See),47.3432238827915,8.69011341357226,"[(8503633, 62)]"
8530647,Fällanden (See),47.3657593422308,8.65270756513631,[]
8530648,Greifensee (See),47.364536357443,8.67492290211568,"[(8590638, 310), (8590639, 495), (8590640, 582)]"
8530696,Mönchaltorf (See),47.3259825998046,8.69992301647621,[]
8530811,"Zürich, Balgrist",47.3545749727743,8.57502125935484,"[(8510010, 401), (8591104, 541)]"
8530812,"Zürich, Hegibachplatz",47.361688700906,8.5606212653484,"[(8591137, 260), (8591364, 341), (8591094, 402), (8591180, 434)]"
8530813,"Zürich, Kreuzplatz",47.3648770923725,8.5540815300791,"[(8591375, 386), (8591364, 389), (8591119, 446), (8576196, 449), (8503003, 558), (8503059, 574), (8576195, 587)]"
8530822,Zürich Limmatquai,47.3730175688688,8.54263699335783,"[(8591327, 127), (8591309, 172), (8503447, 272), (8591316, 379), (8591183, 397), (8591287, 429), (8503499, 487), (8591067, 516), (8588078, 524), (8591299, 553)]"
8557033,"Oberhasli, Industrie",47.4592670391304,8.49001368400678,[]
8557034,"Niederhasli, Nassenwil",47.4656136067714,8.47144550708144,[]
8557097,"Affoltern a.A., Lindenmoos",47.270805578687,8.44411875613473,"[(8583890, 465)]"
8557101,"Schlieren, Kampstrasse",47.3934605633042,8.44834083797068,"[(8590788, 405), (8590805, 582)]"
8570706,"Jonen, Weingasse",47.2934267746297,8.39801721574729,"[(8502879, 432)]"
8572560,"Berikon-Widen, Bahnhof",47.3617982289998,8.36675584385558,"[(8502276, 39), (8502276, 51), (8580729, 376), (8580728, 540)]"
8572561,"Bellikon, Rehaklinik",47.3885345327705,8.34403745031704,"[(8502750, 146)]"
8572568,"Bremgarten AG, Badenerstrasse",47.3563884864263,8.34852004358542,"[(8580847, 365), (8517377, 381), (8517377, 382), (8502188, 554), (8502188, 555), (8502188, 555), (8582529, 568)]"
8572595,"Birmensdorf ZH, Altenberg",47.3471255247055,8.42056492938183,[]
8572596,"Oberwil-Lieli, Englisächer",47.3414768763322,8.40106250456088,"[(8502979, 378)]"
8572597,"Oberwil-Lieli, im Moos",47.3411177284676,8.39402869588525,"[(8502979, 262)]"
8572598,"Berikon, Mattenhof",47.3441247555157,8.38006887636809,"[(8580317, 570)]"
8572599,"Berikon, Kreisschule",47.3562850326259,8.36628871990778,[]
8572600,"Zufikon, Emaus",47.34464822855,8.35197855742976,"[(8572601, 457), (8576496, 473), (8576498, 487), (8582462, 518)]"
8572601,"Zufikon, Algier",47.3417386266265,8.35462858751828,"[(8576498, 299), (8572600, 457), (8576496, 534)]"
8572602,"Oberlunkhofen, Haldenmatten",47.3133646488037,8.3889172819179,"[(8502955, 227), (8573723, 293), (8573722, 373)]"
8572603,"Jonen, Käppeli",47.2994704564101,8.39385801598124,"[(8583071, 342), (8502879, 464)]"
8572605,"Ottenbach, Hinterdorf",47.2839029187437,8.40225726388893,"[(8582790, 410), (8502779, 532)]"
8572646,"Unterlunkhofen, Gemeindehaus",47.3206300822469,8.38015870789651,"[(8510050, 237), (8502553, 318)]"
8572647,"Rottenschwil, Seematten",47.3163245352383,8.36442022411655,[]
8572747,"Bremgarten AG, Bahnhof",47.3516902622456,8.34617544069354,"[(8502273, 36), (8502273, 46), (8582529, 361), (8580847, 449), (8517377, 465), (8517377, 466), (8582462, 581)]"
8573158,"Langnau am Albis, Hinteralbis",47.2747430445065,8.51780755890131,"[(8502762, 322)]"
8573159,"Langnau am Albis, Mittelalbis",47.2757913606347,8.52776987540358,[]
8573160,"Langnau am Albis, Dorf",47.2886132678201,8.53998696326931,"[(8573161, 385), (8503097, 390)]"
8573161,"Langnau-Gattikon, Bahnhof",47.2872178782476,8.54369700539324,"[(8503097, 17), (8573160, 385), (8573162, 550)]"
8573162,"Gattikon, Gattikerhof",47.2833057164563,8.54561041694868,"[(8502776, 535), (8573161, 550), (8503097, 558)]"
8573163,"Gattikon, Gattikerhöhe",47.2854629255643,8.5550966263503,"[(8502776, 374), (8503791, 432)]"
8573164,"Thalwil, Feldstrasse",47.2903376503655,8.55967803429995,"[(8503791, 346), (8590826, 403), (8573165, 418), (8573166, 490), (8595406, 549), (8590829, 588)]"
8573165,"Thalwil, Schützenhaus",47.2877175416266,8.56221128340152,"[(8590817, 322), (8573164, 418), (8503791, 464), (8590815, 473), (8573166, 533), (8590829, 579)]"
8573166,"Thalwil, Mühlebachplatz",47.2912698903072,8.56489724610141,"[(8590829, 103), (8590818, 290), (8590823, 359), (8573167, 488), (8573164, 490), (8573165, 533), (8590830, 542), (8590826, 582)]"
8573167,"Thalwil, Zentrum",47.2949194820454,8.56446605476497,"[(8503202, 144), (8573168, 145), (8590813, 293), (8590824, 301), (8503674, 402), (8590811, 481), (8573166, 488), (8590818, 507), (8590826, 517), (8590829, 517), (8590822, 529)]"
8573168,"Thalwil, Bahnhof",47.2959064736034,8.56512182492247,"[(8503202, 33), (8573167, 145), (8590824, 254), (8503674, 286), (8590813, 309), (8590822, 472), (8590811, 499), (8590818, 587)]"
8573169,"Hausen am Albis, Grindlen",47.2439181481278,8.52569476709697,[]
8573171,"Rifferswil, Unterrifferswil",47.2482356896554,8.49449627727516,"[(8583855, 256)]"
8573176,"Hausen am Albis, Vollenweid",47.2596193835131,8.51053120509893,[]
8573178,"Affoltern a.A., Bahnhof",47.2758157398324,8.44660708947208,"[(8502224, 34)]"
8573178,"Affoltern a. A., Bahnhof",47.2758157398324,8.44660708947208,"[(8502224, 34)]"
8573193,"Zwillikon, Fehrenbach",47.2865658713747,8.44076804012449,[]
8573195,"Obfelden, Hölibachstrasse",47.2686904412726,8.43281794985893,[]
8573205,"Zürich Flughafen, Bahnhof",47.4501618688915,8.56374740253758,"[(8502075, 115), (8503016, 126), (8580301, 375)]"
8573206,"Bachenbülach, Schmiede",47.5008610616303,8.54499057940255,"[(8573207, 522), (8503781, 593)]"
8573207,"Winkel, Scheidweg",47.4969465199914,8.54513430984803,"[(8573206, 522)]"
8573209,"Winkel, Oberdorf",47.4912228741504,8.55563561552085,"[(8503788, 335)]"
8573211,"Kloten, Zum Wilden Mann",47.453545361717,8.58019555539209,"[(8590699, 316), (8576152, 434), (8573233, 514)]"
8573213,"Zürich Flughafen, Werft",47.4447794192125,8.57069137968479,"[(8503309, 332), (8587799, 463), (8588739, 518)]"
8573213,Werft,47.4447794192125,8.57069137968479,"[(8503309, 332), (8587799, 463), (8588739, 518)]"
8573214,"Kloten, Balsberg Hardacher",47.4398278081528,8.57203885261115,"[(8503309, 349), (8502471, 381), (8587799, 391), (8580443, 540)]"
8573226,"Embrach, Zürcherstrasse",47.4993802460905,8.59495487551223,"[(8573225, 371), (8506889, 421)]"
8573228,"Lufingen, Unterdorf",47.4908161862869,8.59676048923356,"[(8506895, 402)]"
8573229,"Lufingen, Hintermarchlen",47.4816679122851,8.5899332930733,[]
8573230,"Lufingen, Augwil",47.4766954879643,8.59214314867255,[]
8573232,"Kloten, Freienberg",47.4632147550056,8.58378881652907,"[(8573234, 463), (8579967, 512), (8579969, 541)]"
8573233,"Kloten, Kaserne Ost",47.4573963256352,8.58021352169778,"[(8573234, 378), (8573211, 514)]"
8573234,"Kloten, Hohrainli",47.4600201647324,8.58177659029236,"[(8573233, 378), (8573232, 463), (8579843, 495)]"
8573236,"Oberglatt ZH, Mösli Hofstetten",47.4792880072242,8.5044945263888,[]
8573237,"Oberglatt ZH, Bahnhof",47.4704474159839,8.51071086815578,"[(8503312, 33), (8503312, 33)]"
8573238,"Oberglatt ZH, Rietli",47.4745764486483,8.51642415336357,"[(8573239, 461)]"
8573239,"Oberglatt ZH, Zentrum",47.4763433326233,8.52079894879784,"[(8573238, 461), (8582662, 556)]"
8573240,"Rümlang, Riedmatt",47.462352356228,8.52758122919389,"[(8590768, 127)]"
8573241,"Rümlang, Bahnhof",47.4539523381081,8.53263874424419,"[(8503311, 19), (8590766, 340), (8595709, 432), (8595712, 444), (8590767, 578)]"
8573242,"Rümlang, Rümelbach",47.4498459841248,8.54026544100742,"[(8595712, 446), (8595710, 447)]"
8573244,"Glattbrugg, Unterriet",47.4376343689152,8.56182500782929,"[(8590762, 451)]"
8573261,"Niederglatt ZH, Nöschikon",47.4953866910793,8.49499933383434,"[(8573262, 420)]"
8573262,"Niederglatt ZH,altes Schulhaus",47.4931834296632,8.4983141172332,"[(8573261, 420), (8573263, 543), (8582720, 553)]"
8573263,"Niederglatt ZH, Zentrum",47.4908161862869,8.50320095237949,"[(8582720, 49), (8503313, 446), (8503313, 446), (8573262, 543)]"
8573264,"Niederhasli, Dorf",47.4806358238393,8.48509091624912,"[(8590723, 443), (8503314, 449)]"
8573265,"Dielsdorf, Erlen",47.4834588411749,8.47121194510754,[]
8573274,"Steinmaur, Gemeindehaus",47.4935536811565,8.44851151787468,"[(8503316, 499), (8573275, 541)]"
8573275,"Steinmaur, Bahnhof",47.4895111218752,8.44810727599677,"[(8503316, 129), (8573274, 541)]"
8573276,"Dielsdorf, Wehntalerstrasse",47.4831674399551,8.45329055518686,"[(8576285, 168), (8576283, 239), (8576286, 327), (8573277, 510), (8596003, 539), (8503315, 565)]"
8573277,"Dielsdorf, Bahnhof",47.4829306752739,8.45892299201908,"[(8503315, 83), (8573276, 510), (8576283, 518), (8594552, 519), (8576285, 578)]"
8573504,"Uster, Bahnhof",47.3508747247717,8.71760186127014,"[(8503125, 121), (8581548, 241), (8588051, 385), (8576095, 403), (8580879, 419), (8581545, 481), (8588055, 494), (8587952, 496), (8580872, 527)]"
8573552,"Horgen, Altes Gemeindehaus",47.2605094888683,8.59603285385333,"[(8590660, 128), (8503855, 151), (8503855, 151), (8503204, 153), (8577912, 258), (8590651, 276), (8503672, 284), (8589111, 362), (8580724, 389), (8573555, 460), (8594182, 563), (8573554, 581)]"
8573553,"Horgen, Stocker",47.2614605438068,8.5890439609419,"[(8579192, 220), (8594182, 265), (8589111, 286), (8502208, 369), (8573554, 380), (8590650, 404), (8589109, 472), (8590655, 477), (8579190, 529)]"
8573554,"Horgen Oberdorf, Bahnhof",47.2587231664274,8.59019380450573,"[(8502208, 34), (8590655, 294), (8573555, 304), (8589111, 335), (8573553, 380), (8594182, 568), (8573552, 581), (8579192, 598)]"
8573555,"Horgen, Bergli",47.257668415323,8.59315824494374,"[(8573554, 304), (8502208, 336), (8589111, 440), (8573552, 460), (8577912, 492), (8590660, 550), (8590655, 557), (8503855, 574), (8503855, 574), (8588985, 597)]"
8573556,"Horgen, Ebnetstrasse",47.2527479981742,8.59672455662219,"[(8503898, 228), (8588985, 285), (8588984, 460)]"
8573710,"Zürich Wiedikon, Bahnhof",47.3714297270242,8.52418559741944,"[(8503011, 64), (8591427, 269), (8591079, 386), (8591227, 411), (8591218, 475), (8591341, 478), (8506517, 512), (8591381, 531)]"
8573711,"Zürich, Sädlenweg",47.3677549978138,8.48748043490521,"[(8591214, 424), (8591163, 553)]"
8573712,"Wettswil a.A., Bäumlisächer",47.3422438618967,8.47010701730792,"[(8579497, 209), (8579472, 223), (8579495, 278), (8579453, 393), (8503693, 547)]"
8573713,"Wettswil a.A., Grund",47.3318703515814,8.4742302844626,"[(8576699, 360), (8579994, 422), (8579440, 501)]"
8573714,"Ringlikon, Langwis",47.3596197941991,8.46512136748036,"[(8574898, 315), (8574780, 431)]"
8573715,"Stallikon, Aumüli",47.3020899828974,8.48590838315778,"[(8573716, 463)]"
8573716,"Stallikon, Tägerst",47.2987759555289,8.48741755283531,"[(8573715, 463), (8503689, 599)]"
8573717,"Aeugstertal, Landhus",47.2799051912787,8.50064973697224,[]
8573718,"Birmensdorf ZH, Bahnhof",47.3569422650859,8.438800729652,"[(8502221, 131), (8583870, 165), (8583870, 165), (8583870, 166), (8583870, 166), (8502950, 427)]"
8573719,"Birmensdorf ZH, Aescherstrasse",47.3508929832113,8.43832462255135,"[(8502950, 419)]"
8573720,"Arni AG, Stockacker",47.3200332946963,8.42388869593354,"[(8503598, 437)]"
8573721,"Oberlunkhofen, Waldegg",47.3134255534873,8.39881671635027,"[(8573722, 567)]"
8573722,"Oberlunkhofen, Oberdorf",47.3123840737352,8.39276207133446,"[(8573723, 246), (8502955, 279), (8572602, 373), (8573721, 567)]"
8573723,"Oberlunkhofen, Dorfplatz",47.311427843258,8.39044441790111,"[(8502955, 73), (8573722, 246), (8572602, 293)]"
8573724,"Stallikon, Aegerten",47.3201977164289,8.49060657209438,"[(8583053, 459)]"
8573725,"Islisberg, Dorf",47.323632186752,8.43934870197539,"[(8583206, 452)]"
8573726,"Bonstetten-Wettswil, Bahnhof",47.3262992277667,8.46849903294912,"[(8502222, 60), (8573730, 450)]"
8573729,"Bonstetten, Isenbach",47.3151613074637,8.47171500166672,"[(8502885, 357), (8579991, 393)]"
8573730,"Bonstetten, Lärchenhof",47.3242411120878,8.47242467074127,"[(8502222, 443), (8573726, 450), (8573726, 450)]"
8573731,"Stallikon, Diebis",47.3493957701894,8.47589216773846,[]
8573732,"Aeugst am Albis, Müliberg",47.2812337378832,8.47853321467414,[]
8573733,"Aeugst am Albis, Höchweg",47.2708665324026,8.48064425559211,"[(8502771, 588)]"
8573734,"Affoltern a.A., Lilienberg",47.2785766113129,8.46595680069471,"[(8582763, 450)]"
8574610,"Uitikon, Wängi",47.3756760322801,8.44657115686071,"[(8574615, 348)]"
8574615,"Uitikon, Gläseren",47.3734738364182,8.44861931570879,"[(8574658, 311), (8574610, 348)]"
8574658,"Uitikon, Roracher",47.3721171893235,8.45140409308995,"[(8574615, 311), (8503699, 326)]"
8574684,"Uitikon, Halde",47.3692577739796,8.45872536265654,"[(8503709, 322), (8502559, 448), (8503699, 449)]"
8574739,"Waldegg, Katholische Kirche",47.3649318531381,8.46234557325205,"[(8575014, 298), (8503055, 350), (8583613, 382), (8503709, 455), (8502559, 461), (8574898, 478)]"
8574780,"Ringlikon, Dorf",47.3583662406661,8.46950514606748,"[(8573714, 431)]"
8574898,"Ringlikon, Gättern",47.3619746904504,8.4653189968429,"[(8573714, 315), (8574739, 478), (8583613, 526), (8503055, 530), (8575014, 567)]"
8575014,"Uitikon Waldegg, Bahnhof",47.3662217569523,8.46503153595194,"[(8503055, 90), (8574739, 298), (8502559, 312), (8503709, 393), (8574898, 567)]"
8575909,"Effretikon, Vogelbuckstrasse",47.4346326723032,8.68333113317621,"[(8575940, 431), (8588311, 433), (8588312, 565)]"
8575918,"Effretikon, Bahnhof",47.4251403510439,8.68615184316874,"[(8503305, 102), (8575919, 340)]"
8575919,"Effretikon, Zentrum",47.4276807174607,8.68641235460117,"[(8503305, 250), (8575918, 340), (8575918, 340), (8588311, 572)]"
8575920,"Effretikon, Müselacher",47.4290480888166,8.69659924992451,"[(8503372, 313), (8575921, 481)]"
8575921,"Effretikon, Lindenwiese",47.4260215925169,8.69948284198693,"[(8503370, 238), (8503372, 457), (8575920, 481)]"
8575922,"Illnau, Gemeindehaus",47.4148560841713,8.71921882878178,"[(8575923, 169), (8503371, 256)]"
8575923,"Illnau, Kirche",47.4146007753991,8.71739524875477,"[(8575922, 169), (8503371, 231), (8575924, 495)]"
8575924,"Illnau, Steinacher",47.4118409301395,8.71374808870073,"[(8575925, 206), (8575923, 495)]"
8575925,"Illnau, Wingert",47.4105582215479,8.71249044730279,"[(8575924, 206)]"
8575926,"Illnau, Chrummenacher",47.405420994912,8.71917391301757,"[(8575927, 539), (8503303, 556), (8594339, 567)]"
8575927,"Illnau, Bahnhof",47.4085337885052,8.72297378666993,"[(8503303, 44), (8594339, 170), (8503382, 378), (8575926, 539)]"
8575937,"Tagelswangen, Oberwis",47.4313695001675,8.67825565182023,"[(8575938, 572), (8503378, 588)]"
8575938,"Tagelswangen, Buckstrasse",47.4337454984171,8.67299152425456,"[(8595538, 83), (8503378, 456), (8588279, 551), (8575937, 572)]"
8575939,"Lindau, Rigacher",47.4402045115079,8.67751005013431,"[(8503377, 571)]"
8575940,"Effretikon, Langhag",47.4371665043924,8.68627760730853,"[(8575909, 431), (8595706, 582)]"
8575941,"Lindau, Eschikon",47.4480782093562,8.68228908744649,[]
8575943,"Grafstal, Oberdorf",47.443473211245,8.69783892501676,"[(8588735, 282), (8503374, 384), (8503381, 579)]"
8575946,"Effretikon, Girhalde",47.4341040156925,8.69127224028894,"[(8595706, 145), (8588312, 256), (8588311, 554)]"
8575957,"Uster, Talacker",47.3433151881596,8.71608370843977,"[(8576788, 119), (8581542, 361), (8581539, 393), (8575958, 539), (8587952, 540)]"
8575958,"Uster, im Hölzli",47.3394497894155,8.71435894309402,"[(8575957, 539)]"
8575976,"Uster, Florastrasse",47.3465472964466,8.7263963679029,"[(8575977, 451), (8588056, 476)]"
8576080,"Meilen, Bahnhof",47.2694401970586,8.64488323901054,"[(8503104, 72), (8588014, 369), (8588023, 385), (8505448, 454), (8503661, 484), (8588028, 579)]"
8576082,"Meilen, Beugen",47.2672701430669,8.65071330520529,"[(8588027, 515), (8588014, 551)]"
8576095,"Uster, Stadtpark",47.3481480602265,8.71569743286754,"[(8581548, 175), (8587952, 241), (8581539, 269), (8580879, 310), (8581545, 389), (8503125, 403), (8573504, 403), (8581544, 559), (8576788, 582)]"
8576097,"Uster, Wil",47.3450986546804,8.70780124151903,"[(8581544, 362), (8503254, 515)]"
8576099,"Uster, Turicum",47.3481054549753,8.69504516448276,"[(8581538, 295), (8581541, 328), (8503785, 381), (8581540, 589)]"
8576127,"Schwerzenbach ZH, Bahnhof",47.3839851475112,8.65955272760226,"[(8503127, 96)]"
8576128,"Volketswil, Hölzliwisen",47.3803964516586,8.67824666866739,"[(8590852, 461), (8503155, 482), (8588096, 486)]"
8576129,"Volketswil, Wallberg",47.3894650404757,8.68706812475867,"[(8576140, 154), (8503151, 505), (8503150, 558), (8576130, 582)]"
8576130,"Volketswil, Huzlenstrasse",47.3931747444858,8.68368147613707,"[(8576131, 251), (8576132, 391), (8503151, 570), (8576129, 582)]"
8576131,"Volketswil, Eichstrasse",47.3947862558512,8.68225315483512,"[(8576130, 251), (8576132, 335)]"
8576132,"Volketswil, Chapf",47.3932173133443,8.67936956277269,"[(8576131, 335), (8576130, 391), (8503151, 574)]"
8576133,"Kindhausen ZH, Bodenacher",47.4050683621631,8.6800702486944,"[(8503350, 537)]"
8576135,"Effretikon, Moosburg",47.4209770453007,8.69181122945948,[]
8576139,"Volketswil, In der Höh",47.3852502566206,8.66838316684638,"[(8589106, 357), (8503154, 453)]"
8576140,"Volketswil, In der Au",47.3895623475222,8.68875695749305,"[(8576129, 154), (8503150, 405)]"
8576152,"Kloten, Kirchgasse",47.4527799945998,8.58485781171732,"[(8580434, 284), (8588736, 344), (8590699, 396), (8573211, 434), (8587420, 516), (8503308, 565), (8580437, 582)]"
8576153,"Kloten, Rankstrasse",47.4511884812805,8.59205331714412,"[(8580437, 105), (8580435, 145), (8580438, 343), (8580434, 401), (8580433, 402), (8588737, 493), (8576154, 586)]"
8576154,"Kloten, Oberfeld",47.4490866379814,8.59773965289339,"[(8580433, 272), (8576155, 532), (8580435, 543), (8576153, 586)]"
8576155,"Kloten, Grubenstrasse",47.4476833374582,8.60324632558581,"[(8588315, 492), (8576154, 532)]"
8576158,"Bassersdorf, Talgüetli",47.4451014096818,8.62048499589046,"[(8590503, 380)]"
8576159,"Bassersdorf, Schmitte",47.4429446434544,8.6287674628112,"[(8576161, 85), (8576160, 103), (8588316, 177), (8590503, 437)]"
8576160,"Bassersdorf, Löwen",47.4435825694351,8.62812965895938,"[(8576161, 85), (8576159, 103), (8588316, 279), (8590503, 346)]"
8576161,"Bassersdorf, Gemeindehaus",47.4435521921829,8.629063906855,"[(8576159, 85), (8576160, 85), (8588316, 244), (8590503, 427)]"
8576163,"Bassersdorf, Rietli",47.4446882894765,8.63618754705906,[]
8576164,"Zufikon, Bachhalde",47.3502478478485,8.35592216152759,"[(8502274, 331), (8576480, 431), (8582529, 595)]"
8576167,"Nürensdorf, Chrüzstrass",47.4542439013472,8.63462447846447,[]
8576168,Birchwil (Nürensdorf),47.4580219287894,8.63903520651011,[]
8576169,"Nürensdorf, Oberwil",47.4641014319557,8.63995148810004,[]
8576170,"Nürensdorf, Berg",47.451018393039,8.65137805851563,[]
8576171,"Breite b. Nürensdorf, Sternen",47.4608279406854,8.65991205371596,"[(8576173, 149), (8576172, 192)]"
8576172,"Breite b. N'dorf,Grünenwaldstr",47.461927224864,8.66128647610085,"[(8576173, 47), (8576171, 192)]"
8576173,"Breite b. N'dorf, W'thurerstr.",47.4615992640343,8.661106813044,"[(8576172, 47), (8576171, 149)]"
8576182,"Zürich Tiefenbrunnen, Bahnhof",47.3504182617297,8.56098957461495,"[(8503004, 53), (8503004, 54), (8505332, 82), (8576200, 416), (8591440, 538)]"
8576183,"Zollikon, Seestrasse",47.3427977889857,8.56732269736887,"[(8576202, 216), (8576201, 430), (8503655, 549), (8576203, 574)]"
8576184,"Zollikon, Bahnhof",47.337763534695,8.56977509809486,"[(8503100, 57), (8503655, 238), (8576203, 440), (8576204, 511)]"
8576185,"Zollikon, Gemeindehaus",47.3407524908453,8.57597347355614,"[(8576203, 308), (8576186, 518), (8576204, 576)]"
8576186,"Zollikon, Höhestrasse",47.3398515605741,8.58152506201278,"[(8576187, 440), (8576185, 518)]"
8576187,"Zollikon, Allmend",47.3429743139797,8.5830971137602,"[(8576188, 360), (8576186, 440)]"
8576188,"Zollikon, Schützenstrasse",47.3448977894484,8.58588189114136,"[(8576189, 314), (8576187, 360)]"
8576189,"Zollikon, Rebwiesstrasse",47.3457134192773,8.58912480931748,"[(8576188, 314), (8503078, 355), (8590879, 381)]"
8576193,"Zürich, Bellevue",47.3670918157679,8.54511634354234,"[(8505333, 221), (8503059, 290), (8503003, 312), (8576195, 321), (8591105, 399), (8503651, 419), (8591183, 431), (8591093, 508), (8591239, 577), (8503447, 598)]"
8576194,"Zürich, Elektrowatt",47.3573865009083,8.55041640371939,"[(8576198, 353), (8576197, 443), (8591109, 447)]"
8576195,"Zürich, Opernhaus",47.3654125285294,8.54764959264391,"[(8503059, 132), (8503003, 177), (8505333, 253), (8576193, 321), (8576196, 355), (8591375, 502), (8530813, 587)]"
8576196,"Zürich, Kreuzstrasse",47.3631855651727,8.54979656617326,"[(8576195, 355), (8576197, 411), (8503059, 448), (8530813, 449), (8503003, 472), (8505333, 540)]"
8576197,"Zürich, Feldeggstrasse",47.3605143020546,8.55206032068955,"[(8576198, 388), (8576196, 411), (8576194, 443), (8591094, 547)]"
8576198,"Zürich, Höschgasse",47.3579950370599,8.5542072942189,"[(8576194, 353), (8591094, 375), (8576197, 388), (8576199, 449), (8591109, 478)]"
8576199,"Zürich, Fröhlichstrasse",47.3551713700479,8.55690224007163,"[(8576200, 319), (8591109, 369), (8591040, 409), (8576198, 449), (8503653, 482), (8591094, 563)]"
8576200,"Zürich, Wildbachstrasse",47.3531874101771,8.55886955054413,"[(8576199, 319), (8591040, 365), (8576182, 416), (8503004, 468), (8503004, 468), (8505332, 470), (8503653, 526), (8591109, 565)]"
8576201,"Zollikon, Bahnübergang",47.3459203681249,8.56615488749935,"[(8576183, 430), (8576202, 480), (8591089, 520), (8591120, 547)]"
8576202,"Zollikon, Felbenstrasse",47.343205621699,8.56963136764938,"[(8576183, 216), (8576203, 458), (8576201, 480), (8591089, 558)]"
8576203,"Zollikon, Dufourplatz",47.3404359495289,8.57261377439307,"[(8576185, 308), (8576184, 440), (8576202, 458), (8503100, 489), (8503655, 518), (8576204, 573), (8576183, 574)]"
8576204,"Zollikon, Beugi",47.3364790229425,8.57508414142474,"[(8576205, 293), (8503100, 498), (8576184, 511), (8576203, 573), (8576185, 576)]"
8576205,"Zollikon, Goldhaldenplatz",47.3350361928599,8.57751857584505,"[(8576204, 293), (8576206, 479)]"
8576206,"Küsnacht ZH, Bühlstrasse",47.3317546730177,8.57965656622155,"[(8576207, 345), (8576205, 479)]"
8576207,"Küsnacht ZH, Goldbacherstrasse",47.3292279464429,8.58046504997737,"[(8576206, 345), (8576208, 426), (8503141, 516)]"
8576208,"Küsnacht ZH, Boglerenstrasse",47.3262870498033,8.58230659631007,"[(8576207, 426), (8576209, 443), (8503141, 580)]"
8576209,"Küsnacht ZH, Schiedhaldenstr.",47.3229745395057,8.58257609089534,"[(8576210, 441), (8576208, 443), (8576216, 508), (8503101, 539), (8576223, 553)]"
8576210,"Küsnacht ZH, Schiedhaldensteig",47.3213669228819,8.58682512218982,"[(8576211, 285), (8576216, 336), (8576209, 441)]"
8576211,"Küsnacht ZH, Schübel",47.3219454269227,8.58985244469772,"[(8576210, 285), (8576216, 592)]"
8576214,"Itschnach, Dorf",47.3277910070514,8.6023120776902,"[(8576215, 380), (8576215, 380), (8590668, 415)]"
8576215,"Itschnach, Fallacher",47.3290270208281,8.60608500188402,"[(8576214, 380)]"
8576215,Fallacher,47.3290270208281,8.60608500188402,"[(8576214, 380)]"
8576216,"Küsnacht ZH, Oberwacht",47.3193999617596,8.58450746875647,"[(8590705, 281), (8576210, 336), (8576217, 347), (8503101, 353), (8590704, 379), (8576223, 389), (8576209, 508), (8503657, 566), (8576211, 592)]"
8576217,"Küsnacht ZH, Ob. Heslibachstr.",47.3168970044268,8.58554951448619,"[(8590704, 155), (8576216, 347), (8590705, 380), (8590702, 446), (8576218, 502), (8503101, 538), (8576223, 567), (8590703, 582)]"
8576218,"Küsnacht ZH, Bergstrasse",47.3144182899337,8.58970871425224,"[(8590703, 189), (8576219, 241), (8576220, 365), (8590702, 433), (8590701, 437), (8576217, 502), (8576221, 506)]"
8576219,"Küsnacht ZH, Himmelistrasse",47.3138397034745,8.59222399704813,"[(8576218, 241), (8576220, 272), (8576221, 293), (8590703, 324), (8576222, 525), (8590701, 528)]"
8576220,"Küsnacht ZH, Hesligenstrasse",47.3157703304347,8.59320316070795,"[(8576221, 249), (8576219, 272), (8576218, 365), (8576222, 366), (8590703, 532)]"
8576221,"Küsnacht ZH, Ränkestrasse",47.3145461871381,8.59527826901456,"[(8576222, 245), (8576220, 249), (8576219, 293), (8576218, 506)]"
8576222,"Küsnacht ZH, Allmend",47.3158129617798,8.59723659633421,"[(8576221, 245), (8576220, 366), (8576219, 525)]"
8576223,"Küsnacht ZH, Bahnhof",47.3191441905369,8.5802404711563,"[(8503101, 36), (8503657, 177), (8590705, 189), (8576216, 389), (8590704, 476), (8576209, 553), (8576217, 567)]"
8576224,"Zumikon, Gössikon",47.3321321495007,8.61464594654287,[]
8576225,"Zumikon, Waltikon",47.3361076653809,8.6181853087628,"[(8503075, 140), (8576226, 599)]"
8576226,"Zumikon, Dorfzentrum",47.3329784176173,8.62291943031076,"[(8503066, 190), (8576225, 599)]"
8576235,"Otelfingen, Bahnhof",47.4551185813653,8.38827947806608,"[(8503528, 72), (8595143, 578)]"
8576236,"Otelfingen, Post",47.460481752511,8.39013899070447,"[(8576237, 283), (8595143, 345)]"
8576237,"Otelfingen, Schule",47.4626013601446,8.39012102439878,"[(8576236, 283), (8595143, 535)]"
8576238,"Boppelsen, Dorf",47.4700648568313,8.40191590408092,"[(8576239, 512)]"
8576239,"Boppelsen, Hand",47.4687653493912,8.40724291371649,"[(8576238, 512)]"
8576240,"Zürich, Meierhofplatz",47.4020100860391,8.49937412926861,"[(8591223, 163), (8591446, 234), (8591431, 413), (8591434, 507), (8591353, 564)]"
8576241,"Zürich, Heizenholz",47.4122968616864,8.48390514007392,"[(8591158, 280), (8591155, 425), (8591320, 504)]"
8576242,"Zürich, Grünwald",47.4173847899242,8.48316852154084,"[(8591155, 464)]"
8576243,"Regensdorf, Lettenhau",47.4257906479022,8.47195754679347,"[(8576264, 287), (8576244, 502)]"
8576244,"Regensdorf, Obstgarten",47.4290784744433,8.46925361778789,"[(8590760, 171), (8576264, 402), (8576245, 416), (8576246, 421), (8576243, 502)]"
8576245,"Regensdorf, Zentrum",47.4314606529742,8.46628917734988,"[(8590760, 384), (8590754, 415), (8576244, 416), (8576246, 439), (8576265, 477), (8576275, 485)]"
8576246,"Regensdorf, Ostring",47.4319832593521,8.47107719781491,"[(8590760, 251), (8576265, 325), (8576244, 421), (8576245, 439), (8590754, 477), (8576264, 597)]"
8576248,"Watt, Geerenweg",47.4390014816685,8.47723964066482,"[(8590878, 502), (8576249, 534), (8503526, 569)]"
8576249,"Watt, Dorf",47.4422216513247,8.48074307027338,"[(8576250, 335), (8590908, 528), (8576248, 534)]"
8576250,"Watt, Schulhaus",47.4439106426415,8.47800320865643,"[(8576249, 335), (8590908, 443), (8576251, 476)]"
8576251,"Watt, Laubisser",47.4474767878999,8.47777862983537,"[(8590908, 394), (8576250, 476)]"
8576252,"Watt, Haldensteig",47.4490137401749,8.47108618096775,"[(8590461, 426), (8576253, 433), (8590462, 600)]"
8576253,"Adlikon b. R., Dorf",47.4481632583,8.46646884040673,"[(8576252, 433), (8590461, 443), (8590757, 460), (8576278, 490), (8590462, 592), (8576281, 598)]"
8576255,"Adlikon b. R., Sonnhalde",47.4520024673923,8.46220184280657,"[(8576256, 344), (8576281, 360), (8590462, 447)]"
8576256,"Adlikon b. R., Sonnhalde West",47.4533023892358,8.45891400886623,"[(8576255, 344)]"
8576257,"Buchs ZH, Petermoos",47.457189814222,8.4434360365187,"[(8576258, 335), (8576259, 534), (8595356, 573)]"
8576258,"Buchs ZH, Linde",47.4584592391954,8.44024701725963,"[(8576257, 335), (8576259, 340), (8595356, 478)]"
8576259,"Buchs ZH, Post",47.456661384266,8.43758800401827,"[(8595356, 183), (8576258, 340), (8576260, 444), (8503527, 470), (8576257, 534)]"
8576260,"Buchs-Dällikon, Bahnhof",47.4533388351796,8.43732749258584,"[(8503527, 156), (8595356, 264), (8576259, 444), (8576277, 522)]"
8576262,"Zürich, Zehntenhausplatz",47.419220456965,8.5064618368613,"[(8591054, 276), (8503008, 296), (8591338, 405), (8591153, 489), (8576263, 512)]"
8576263,"Zürich, Hungerbergstrasse",47.4210925282938,8.5015300859508,"[(8591090, 492), (8576262, 512), (8591046, 521), (8591054, 533), (8591200, 573)]"
8576264,"Regensdorf, Chrüzächer",47.4277536448297,8.47324213764993,"[(8576243, 287), (8576244, 402), (8590760, 434), (8576246, 597)]"
8576265,"Regensdorf, Gemeindehaus",47.4342194698883,8.46964887651296,"[(8590754, 214), (8576246, 325), (8503526, 383), (8590878, 440), (8576245, 477), (8590756, 531), (8590760, 535), (8576280, 536)]"
8576269,"Regensdorf, Dreispitz",47.4383574240857,8.4647261087553,"[(8590756, 312), (8590759, 330), (8576270, 338), (8576279, 447), (8576280, 493), (8590754, 567)]"
8576270,"Regensdorf, Sportanlage Wisa.",47.4375067699125,8.4612136959939,"[(8590759, 297), (8576269, 338), (8590756, 351), (8590755, 512)]"
8576271,"Dällikon, Seitenacker",47.4387766700117,8.44470266106948,"[(8576272, 505)]"
8576272,"Dällikon, Dorf",47.4397366698391,8.43930378621118,"[(8576271, 505)]"
8576273,"Dänikon, Gemeindehaus",47.4458790389137,8.40683867183858,[]
8576274,Hüttikon,47.4461220456912,8.3864199654277,[]
8576275,"Regensdorf, Holenbach",47.4312175784721,8.46094420140863,"[(8576245, 485)]"
8576276,"Dällikon, Industrie",47.444736892022,8.43878276334631,[]
8576277,"Buchs ZH, Industrie",47.4494814993441,8.43832462255135,"[(8576260, 522), (8503527, 579)]"
8576278,"Regensdorf, Furtbächli",47.4444938788455,8.46669341922779,"[(8590461, 356), (8576279, 392), (8590758, 419), (8590757, 447), (8576253, 490)]"
8576279,"Regensdorf, Hardhölzli",47.4416080115536,8.46590290177766,"[(8576278, 392), (8576269, 447), (8590759, 458), (8590758, 527), (8576280, 595)]"
8576280,"Regensdorf, Althard",47.4382176747013,8.47016989937782,"[(8503526, 280), (8590878, 314), (8576269, 493), (8576265, 536), (8590754, 560), (8576279, 595), (8590756, 596)]"
8576281,"Adlikon b. R., Ziegelhütte",47.452634209124,8.46607358168166,"[(8590462, 90), (8576255, 360), (8576253, 598)]"
8576282,"Dielsdorf, Altmoos",47.475985103217,8.45486260693429,[]
8576283,"Dielsdorf, Dorfzentrum",47.4813947143755,8.45366784760625,"[(8576285, 118), (8573276, 239), (8576286, 272), (8596003, 370), (8573277, 518), (8503315, 540)]"
8576285,"Dielsdorf, Bezirksgebäude",47.4819775348651,8.45268868394642,"[(8576283, 118), (8573276, 168), (8576286, 195), (8596003, 374), (8573277, 578)]"
8576286,"Dielsdorf, Spitalstrasse",47.4814857805033,8.45065849140403,"[(8576285, 195), (8596003, 257), (8576283, 272), (8573276, 327), (8576287, 553)]"
8576287,"Regensberg, Hirsmühle",47.4822568007251,8.44464876215243,"[(8576286, 553)]"
8576288,"Regensberg, Höfli",47.480945452502,8.43677053710961,"[(8576289, 261)]"
8576289,"Regensberg, Dorf",47.4828699662093,8.43626748055043,"[(8576288, 261)]"
8576480,"Zufikon, Schulanlage",47.34747854516,8.35837456225358,"[(8576496, 304), (8576164, 431), (8576498, 570)]"
8576496,"Zufikon, Volg",47.3453725605832,8.35708997139711,"[(8576498, 275), (8576480, 304), (8572600, 473), (8572601, 534)]"
8576498,"Zufikon, Haldenstrasse",47.3433151881596,8.35697319041016,"[(8576496, 275), (8572601, 299), (8572600, 487), (8576480, 570)]"
8576699,"Wettswil a.A., Schürli",47.3329175354717,8.47788642766948,"[(8579440, 171), (8573713, 360), (8579994, 399), (8576743, 489)]"
8576743,"Wettswil a.A., Beerimoos",47.3295689093734,8.48007831696304,"[(8576699, 489)]"
8576788,"Uster, Burgreben",47.3438873648707,8.71708982155812,"[(8575957, 119), (8581542, 290), (8581539, 356), (8587952, 443), (8580879, 565), (8576095, 582)]"
8577867,"Horgen, Waidli",47.2541564914236,8.60552804640779,"[(8590661, 277), (8590652, 364), (8590658, 435), (8590663, 443), (8588984, 469)]"
8577912,"Horgen, untere Mühle",47.2591865186515,8.59809897900709,"[(8580724, 147), (8590651, 148), (8590660, 195), (8573552, 258), (8503204, 325), (8503855, 392), (8503855, 392), (8590659, 418), (8503672, 425), (8573555, 492), (8590663, 510), (8589111, 592), (8530643, 594)]"
8578679,"Würenlos, Bettlen",47.4461038202218,8.37079826263468,"[(8590314, 382)]"
8579186,"Oberrieden, Bahnhof",47.2794237372554,8.57915350966237,"[(8503203, 71), (8503673, 274), (8502209, 384), (8590734, 386), (8590735, 411)]"
8579188,"Oberrieden, Seehalde",47.2733168136371,8.58318694528863,"[(8590736, 275), (8589108, 559)]"
8579189,"Horgen, Scheller",47.269159801829,8.58692393687108,"[(8589110, 345), (8589108, 397), (8579190, 517)]"
8579190,"Horgen, Plattenhof",47.2653865128411,8.5882175108804,"[(8589109, 225), (8579192, 310), (8594182, 411), (8589110, 419), (8579189, 517), (8573553, 529), (8590650, 574)]"
8579192,"Horgen, Spital",47.263100463796,8.58880141581516,"[(8594182, 198), (8573553, 220), (8589109, 295), (8579190, 310), (8590650, 414), (8589111, 420), (8502208, 588), (8573554, 598)]"
8579434,"Wettswil a.A., Dettenbühl",47.3377148333975,8.47454469481209,"[(8503692, 18), (8579442, 300), (8579443, 355), (8579994, 361), (8579453, 527)]"
8579440,"Wettswil a.A., Chilenholzstr.",47.3340742842361,8.47870389457814,"[(8576699, 171), (8579994, 380), (8579442, 488), (8573713, 501)]"
8579442,"Wettswil a.A., Oberhusen",47.3376843950638,8.47785049505811,"[(8579434, 300), (8503692, 318), (8579443, 342), (8579994, 454), (8579440, 488)]"
8579443,"Wettswil a.A., Eggächer",47.3400524450069,8.47641319060332,"[(8579453, 285), (8579442, 342), (8579434, 355), (8503692, 364), (8579472, 544)]"
8579453,"Wettswil a.A., Heissächerstr.",47.3416655801633,8.4743560486024,"[(8579472, 259), (8579443, 285), (8573712, 393), (8579495, 497), (8503692, 527), (8579434, 527), (8579497, 553)]"
8579472,"Wettswil a.A., Strumbergächer",47.3430108363185,8.47228992344864,"[(8573712, 223), (8579495, 238), (8579453, 259), (8579497, 312), (8579443, 544)]"
8579495,"Wettswil a.A., Rehweid",47.3443134498822,8.47050227603299,"[(8579497, 168), (8579472, 238), (8573712, 278), (8503693, 387), (8579453, 497)]"
8579497,"Wettswil a.A., Langächer",47.3436073642763,8.46896615689693,"[(8579495, 168), (8573712, 209), (8579472, 312), (8503693, 339), (8579453, 553)]"
8579843,"Kloten, Sporthalle Ruebisbach",47.461957591504,8.57710535081429,"[(8573234, 495)]"
8579967,"Kloten, Weinbergstrasse",47.4661540924378,8.58015063962788,"[(8579969, 211), (8573232, 512)]"
8579968,"Kloten, Egetswil",47.4695547736295,8.58466916550763,"[(8590600, 375), (8579969, 407)]"
8579969,"Kloten, Chanzler",47.4670893016991,8.58202811857195,"[(8579967, 211), (8579968, 407), (8573232, 541)]"
8579991,"Bonstetten, Sunnenberg",47.3124449795489,8.47339485124826,"[(8573729, 393)]"
8579994,"Wettswil a.A., Moosstrasse",47.335011840959,8.47475130732747,"[(8579434, 361), (8503692, 362), (8579440, 380), (8576699, 399), (8573713, 422), (8579442, 454)]"
8580268,"Affoltern a.A., Bezirksspital",47.2811971728268,8.45738687288302,"[(8502953, 270), (8502574, 396), (8582763, 405)]"
8580301,"Zürich Flughafen, OPC",47.4526524323306,8.56566081409302,"[(8502075, 279), (8573205, 375), (8573205, 375), (8503016, 422), (8588553, 553)]"
8580317,"Berikon, Stalden",47.3476428814627,8.37650256468964,"[(8572598, 570)]"
8580432,"Kloten, Bramen",47.4439106426415,8.57842587428213,"[(8588740, 132), (8588739, 245), (8590697, 388), (8502471, 442)]"
8580433,"Kloten, Graswinkel",47.4509394233112,8.59648201149545,"[(8576154, 272), (8576153, 402), (8580435, 427), (8580438, 462), (8580437, 500)]"
8580434,"Kloten, Lindenstrasse",47.4521118078505,8.58784021846101,"[(8576152, 284), (8580437, 298), (8588736, 368), (8576153, 401), (8580435, 456), (8588737, 498), (8588738, 516), (8580438, 530), (8587420, 552), (8503308, 593)]"
8580435,"Kloten, Mühle",47.4501071966638,8.59192755300433,"[(8576153, 145), (8580437, 211), (8580433, 427), (8580434, 456), (8580438, 484), (8576154, 543)]"
8580437,"Kloten, Säntisstrasse",47.4515651032864,8.59102923772008,"[(8576153, 105), (8580435, 211), (8580434, 298), (8580438, 341), (8588737, 443), (8580433, 500), (8588736, 559), (8588738, 562), (8576152, 582)]"
8580438,"Kloten, Wohnheim",47.4536243275317,8.59325705962501,"[(8588737, 227), (8580437, 341), (8576153, 343), (8588738, 411), (8580433, 462), (8580435, 484), (8580434, 530), (8588736, 575)]"
8580443,"Glattbrugg, Riethofstrasse",47.4363765938092,8.56892169857482,"[(8587654, 275), (8590743, 354), (8590631, 493), (8573214, 540), (8594553, 552)]"
8580449,"Zürich Oerlikon, Bahnhof",47.411494419524,8.54479295004002,"[(8503006, 60), (8591062, 145), (8591382, 230), (8591063, 264), (8591272, 463), (8591273, 485)]"
8580522,"Zürich, Escher-Wyss-Platz",47.3907969150758,8.5223979500038,"[(8591437, 262), (8594239, 435), (8591110, 462), (8591135, 512), (8591323, 547)]"
8580536,"Opfikon, Schulstrasse",47.4308408107752,8.57371870219269,"[(8594553, 310), (8590748, 378), (8590744, 424), (8590623, 520), (8590743, 522)]"
8580619,"Bachenbülach, Bramenländli",47.5035252106459,8.53896288384527,"[(8580620, 263)]"
8580620,"Bachenbülach, Bramenstrasse",47.5047692430355,8.54121765520872,"[(8580619, 263), (8503781, 434)]"
8580724,"Horgen, Baumgärtlihof",47.2589975202076,8.5996889970602,"[(8577912, 147), (8590651, 159), (8590659, 274), (8590660, 293), (8573552, 389), (8590663, 394), (8503204, 417), (8530643, 451), (8503672, 486), (8503855, 505), (8503855, 505), (8588985, 594)]"
8580728,"Widen, Burkertsmatt",47.3657106667611,8.36523769102521,"[(8580729, 169), (8502575, 290), (8502276, 491), (8502276, 515), (8572560, 540)]"
8580729,"Berikon, Kesslernmatt",47.3645789494295,8.3660821073924,"[(8580728, 169), (8502276, 326), (8502276, 355), (8572560, 376), (8502575, 459)]"
8580847,"Bremgarten AG, Bibenlos",47.353838595413,8.34999328065158,"[(8517377, 26), (8517377, 27), (8582529, 210), (8572568, 365), (8502273, 443), (8502273, 443), (8572747, 449), (8502274, 457), (8502188, 500), (8502188, 500), (8502188, 504)]"
8580872,"Uster, Ackerstrasse",47.353004833435,8.71270604297101,"[(8588051, 276), (8588055, 330), (8581545, 395), (8587680, 432), (8587860, 460), (8573504, 527)]"
8580874,"Uster, Krämeracker",47.3517389506513,8.70592376257496,"[(8580877, 364), (8587680, 467), (8581540, 573)]"
8580877,"Uster, Sonnenberg",47.3501869856148,8.70261796232894,"[(8581540, 303), (8580874, 364), (8587010, 430), (8581541, 561)]"
8580879,"Uster, Stadthaus",47.3478985146944,8.71909306464199,"[(8587952, 144), (8581548, 250), (8576095, 310), (8503125, 332), (8573504, 419), (8581539, 431), (8576788, 565)]"
8580912,"Zürich, Schaufelbergerstrasse",47.3689048992124,8.50184449630028,"[(8591190, 414), (8503053, 550), (8591351, 557), (8591170, 576), (8503610, 595), (8591401, 596)]"
8581015,"Affoltern a.A., Friedhof",47.2826658493811,8.44649929163797,[]
8581059,"Stallikon, Loomatt",47.3384209978144,8.48551312443272,[]
8581346,"Oberwil-Lieli, Bündtenmättli",47.3395958883723,8.38288958636062,"[(8502894, 455)]"
8581538,"Uster, Seeweg",47.3461394895498,8.69652738470176,"[(8503785, 94), (8576099, 295), (8587010, 479), (8503254, 555), (8581541, 565)]"
8581539,"Uster, Apothekerstrasse",47.3461760096989,8.71506861216857,"[(8576095, 269), (8587952, 291), (8576788, 356), (8575957, 393), (8581548, 430), (8580879, 431), (8581544, 526), (8581545, 569)]"
8581540,"Uster, Wildsbergstrasse",47.3512216340433,8.69964453873809,"[(8580877, 303), (8581541, 312), (8580874, 573), (8587010, 587), (8576099, 589)]"
8581541,"Uster, Jungholz",47.3503756583109,8.69643755317334,"[(8581540, 312), (8576099, 328), (8580877, 561), (8581538, 565)]"
8581542,"Uster, Burgstrasse",47.3430534456819,8.72004527884329,"[(8576788, 290), (8575957, 361), (8581543, 571), (8587952, 581)]"
8581544,"Uster, Bildungszentrum",47.3475150643826,8.70960685524037,"[(8576097, 362), (8581545, 424), (8581539, 526), (8576095, 559)]"
8581545,"Uster, Jugendhaus",47.3500470022109,8.71243654838574,"[(8576095, 389), (8580872, 395), (8581544, 424), (8581548, 432), (8573504, 481), (8588051, 541), (8581539, 569), (8503125, 570)]"
8581548,"Uster, Poststrasse",47.3491157988131,8.7169999900297,"[(8576095, 175), (8503125, 228), (8573504, 241), (8580879, 250), (8587952, 274), (8581539, 430), (8581545, 432), (8588051, 590)]"
8581666,"Bonstetten, Lätten",47.3189005977452,8.45578787167706,[]
8582104,"Zwillikon, Lochhof",47.2885523345462,8.42249630724296,[]
8582462,"Bremgarten AG, Zelgli",47.3475576701104,8.34819665008309,"[(8572600, 518), (8502273, 543), (8502273, 551), (8572747, 581)]"
8582529,"Bremgarten AG, Zufikerstrasse",47.3522623481765,8.35006514587432,"[(8517377, 205), (8517377, 205), (8580847, 210), (8502273, 335), (8502273, 339), (8572747, 361), (8502274, 421), (8572568, 568), (8576164, 595)]"
8582662,"Oberglatt ZH, Bälen",47.4801258432404,8.52336813051078,"[(8583761, 465), (8573239, 556)]"
8582720,"Niederglatt ZH, Sonnenbergstr.",47.4904884057168,8.50295840725274,"[(8573263, 49), (8503313, 404), (8503313, 404), (8573262, 553), (8583769, 583)]"
8582721,"Hedingen, Hausacker",47.2948951116504,8.44918525433787,"[(8502223, 595)]"
8582722,"Hedingen, Güpf",47.2997263228562,8.44823304013657,"[(8502223, 241)]"
8582723,"Affoltern a.A., Blitzgbach",47.2855238623972,8.45310190897717,"[(8502953, 586)]"
8582751,"Riedt b. Neerach, Storchen",47.5003876907126,8.47402367194723,"[(8503860, 86)]"
8582752,"Birmensdorf ZH, Weissenbrunnen",47.3560720388686,8.44596030246743,"[(8503698, 495)]"
8582763,"Affoltern a.A., Weinberg",47.2797589272286,8.46131251067517,"[(8502574, 265), (8580268, 405), (8573734, 450)]"
8582790,"Ottenbach, Engelwiese",47.2814957867147,8.40506000757577,"[(8502779, 190), (8572605, 410), (8583363, 525)]"
8583047,"Aeugst am Albis, Grossacher",47.2661058358545,8.49120844333483,"[(8502771, 580)]"
8583053,"Stallikon, Langfuren",47.3236260974632,8.49017538075794,"[(8573724, 459), (8503690, 469)]"
8583071,"Jonen, Radmühle",47.3019681473342,8.39299563330837,"[(8572603, 342)]"
8583206,"Islisberg, Räbacher",47.321634862383,8.43532424950197,"[(8573725, 452)]"
8583214,"Birmensdorf ZH, Ristet",47.3657228356327,8.42941333493164,[]
8583363,"Ottenbach, Geeren",47.2842441741668,8.4091922578833,"[(8582790, 525)]"
8583613,"Waldegg, Leuen",47.3627413781756,8.45963266109363,"[(8574739, 382), (8503578, 466), (8574898, 526)]"
8583692,"Steinmaur, Sünikon",47.4907554863357,8.43739037465573,[]
8583731,"Birmensdorf ZH, Landikon Dorf",47.3527857405107,8.46109691500695,"[(8503551, 85)]"
8583755,"Aesch ZH, Heligenmattstrasse",47.3345248005831,8.43633036262033,"[(8502876, 536)]"
8583761,"Oberglatt ZH, Pistenende",47.482469284624,8.52716800416314,"[(8582662, 465)]"
8583769,"Niederglatt ZH, Seeblerstrasse",47.4873440363146,8.49847581398437,"[(8503313, 438), (8503313, 438), (8582720, 583)]"
8583774,"Winkel, Seebüel",47.4924186396252,8.54719145184895,"[(8503788, 465)]"
8583775,"Winkel, Wisental",47.479275864575,8.55374915342393,[]
8583805,"Bonstetten, Dorfstrasse",47.3171223363425,8.46372897878978,"[(8502885, 457)]"
8583855,"Rifferswil, Hausmatte",47.2483881387852,8.49168455043548,"[(8573171, 256)]"
8583870,"Birmensdorf ZH, Bahnhof Süd",47.3571735115972,8.43701308223635,"[(8502221, 60), (8573718, 165), (8573718, 165), (8502950, 432)]"
8583870,Bahnhof Süd,47.3571735115972,8.43700409908351,"[(8502221, 60), (8573718, 165), (8573718, 165), (8502950, 432)]"
8583890,"Affoltern a.A., Moosbach",47.2727438724658,8.43986074168741,"[(8557097, 465)]"
8587010,"Uster, Pfannenstielstrasse",47.3470342259279,8.70164778182196,"[(8503254, 336), (8503785, 425), (8580877, 430), (8581538, 479), (8581540, 587)]"
8587018,Kindhausen AG,47.3941781441443,8.37597255867193,"[(8590241, 412)]"
8587020,"Dietikon, Bahnhof",47.4058344234044,8.40452101840523,"[(8503508, 43), (8503508, 43), (8590217, 218), (8595511, 381), (8590529, 413), (8590223, 559), (8590514, 586)]"
8587347,"Zürich, Rote Fabrik",47.342730831075,8.53601640971295,"[(8591304, 361), (8503681, 370), (8591217, 502), (8591357, 544), (8591106, 546), (8591279, 557)]"
8587348,"Zürich, Bahnhofplatz/HB",47.3772394138519,8.53934017626465,"[(8503088, 20), (8503088, 30), (8591067, 136), (8503000, 148), (8587349, 222), (8591262, 250), (8503446, 315), (8591368, 385), (8588078, 420), (8503499, 436), (8591367, 490), (8591379, 513), (8596126, 543), (8591327, 547), (8591316, 562), (8591174, 568)]"
8587349,"Zürich, Bahnhofquai/HB",47.3775618175159,8.54173867807358,"[(8503000, 161), (8503446, 199), (8503088, 217), (8588078, 221), (8587348, 222), (8503088, 234), (8503499, 249), (8591067, 273), (8591174, 375), (8591379, 376), (8503500, 433), (8591262, 450), (8591368, 485), (8591327, 494), (8591123, 590)]"
8587420,"Kloten, Bahnhof",47.448965141581,8.58388763121034,"[(8503308, 48), (8590693, 136), (8590699, 397), (8590697, 452), (8576152, 516), (8590698, 539), (8580434, 552)]"
8587651,"Wallisellen, Glatt (Bus)",47.4092086081654,8.59554776359983,"[(8594198, 228), (8590884, 367), (8590895, 469), (8587655, 542), (8503129, 572), (8590894, 599)]"
8587651,Glatt (Bus),47.4092086081654,8.59554776359983,"[(8594198, 228), (8590884, 367), (8590895, 469), (8587655, 542), (8503129, 572), (8590894, 599)]"
8587652,"Zürich, Altried",47.4056277095638,8.59100228826155,"[(8591194, 317), (8590510, 445), (8591263, 493)]"
8587653,"Dübendorf, Bahnhof",47.3997299435837,8.62363808253816,"[(8503128, 51), (8590548, 146), (8590575, 344), (8590550, 400), (8590586, 431), (8590558, 491), (8590589, 501), (8590591, 506)]"
8587654,"Glattbrugg, Glatthof",47.434511142518,8.56762812456551,"[(8590631, 228), (8580443, 275), (8590743, 368), (8594553, 434)]"
8587655,"Wallisellen, Bahnhof",47.4127223942356,8.59253840739761,"[(8503129, 55), (8590899, 247), (8594187, 354), (8594190, 418), (8590884, 450), (8590895, 484), (8590886, 506), (8594186, 537), (8587651, 542), (8587651, 542)]"
8587680,"Uster, Gschwaderstrasse",47.3547027727575,8.70865464103907,"[(8580872, 432), (8587860, 439), (8580874, 467), (8591857, 477), (8587859, 518)]"
8587799,"Kloten Balsberg, Bahnhof",47.4416140872299,8.56860728822534,"[(8503309, 211), (8573214, 391), (8573213, 463), (8573213, 463)]"
8587858,"Volketswil, Giessen",47.3888811944238,8.6963028058807,"[(8503150, 295)]"
8587859,"Uster, Loren",47.3580254636833,8.71161908147707,"[(8588052, 110), (8591857, 184), (8587860, 234), (8588054, 381), (8503152, 423), (8587680, 518), (8588053, 542)]"
8587860,"Uster, Strick",47.3564493415083,8.71275994188806,"[(8587859, 234), (8588052, 243), (8591857, 371), (8588055, 389), (8587680, 439), (8580872, 460), (8588051, 480), (8588054, 508)]"
8587952,"Uster, Zentralstrasse",47.3471620441724,8.71792525477247,"[(8580879, 144), (8576095, 241), (8581548, 274), (8581539, 291), (8503125, 434), (8576788, 443), (8573504, 496), (8575957, 540), (8581542, 581)]"
8587964,"Erlenbach ZH, Alterswohnheim",47.3072920994884,8.59476622930254,"[(8587976, 237), (8587973, 263), (8587971, 333), (8503102, 356), (8587965, 375), (8587978, 484), (8587966, 561)]"
8587965,"Erlenbach ZH, Bahnhof",47.305818015385,8.5912448333883,"[(8503102, 25), (8587971, 247), (8587966, 271), (8587964, 375), (8503659, 412), (8587974, 446), (8587973, 489)]"
8587966,"Erlenbach ZH, Bahnhofstrasse",47.3037895597272,8.59134364806957,"[(8503659, 211), (8587974, 223), (8587971, 256), (8503102, 268), (8587965, 271), (8587973, 549), (8587964, 561)]"
8587967,"Erlenbach ZH, Im Bindschädler",47.2955835709855,8.60393802835468,"[(8587972, 297), (8590644, 463), (8587975, 464), (8588002, 492), (8587977, 498), (8503111, 499)]"
8587968,"Erlenbach ZH, Chapf",47.3078768487363,8.60903147601634,"[(8587970, 150), (8588205, 395), (8587980, 416)]"
8587969,"Erlenbach ZH, Erlenhöhe",47.3060007553159,8.60239292606578,"[(8587978, 267), (8588205, 270), (8587976, 508), (8587970, 516), (8587973, 523)]"
8587970,"Erlenbach ZH, Föhrenstrasse",47.3070849992451,8.60785468299398,"[(8587968, 150), (8588205, 251), (8587980, 513), (8587969, 516)]"
8587971,"Erlenbach ZH, Im Loo",47.3049164891466,8.59362536889155,"[(8503102, 224), (8587965, 247), (8587966, 256), (8587974, 285), (8587973, 296), (8587964, 333), (8503659, 466), (8587976, 494), (8587979, 517)]"
8587972,"Erlenbach ZH, Im Streuli",47.2970518481196,8.60639941223351,"[(8587975, 207), (8587967, 297), (8587977, 472), (8588002, 516), (8590644, 562)]"
8587973,"Erlenbach ZH, Im Vogelsang",47.305781467323,8.59663472509377,"[(8587976, 254), (8587964, 263), (8587971, 296), (8587978, 371), (8503102, 464), (8587979, 471), (8587965, 489), (8587974, 500), (8587969, 523), (8587966, 549)]"
8587974,"Erlenbach ZH,Kirchgemeindehaus",47.3027905319376,8.59331994169491,"[(8587966, 223), (8587971, 285), (8503659, 366), (8587979, 420), (8503102, 433), (8587965, 446), (8587973, 500)]"
8587975,"Erlenbach ZH, Pflugstein",47.2968934467393,8.60867214990265,"[(8587972, 207), (8587997, 463), (8587967, 464), (8588002, 466), (8590644, 556)]"
8587976,"Erlenbach ZH, Rankstrasse",47.3076271128698,8.59732642786264,"[(8587964, 237), (8587973, 254), (8587978, 257), (8587971, 494), (8587969, 508), (8503102, 581)]"
8587977,"Erlenbach ZH, Rebstrasse",47.2991232071098,8.6021863135504,"[(8503111, 386), (8587972, 472), (8587967, 498), (8587979, 581)]"
8587978,"Erlenbach ZH, Sandfelsenstr.",47.3072555524456,8.60010222209095,"[(8587976, 257), (8587969, 267), (8587973, 371), (8587964, 484), (8588205, 492)]"
8587979,"Erlenbach ZH, Schulhaus",47.3023580201484,8.59790134964455,"[(8587974, 420), (8587973, 471), (8587971, 517), (8587977, 581)]"
8587980,"Erlenbach ZH, Trottgatter",47.3071824582843,8.61350508613188,"[(8587968, 416), (8587970, 513)]"
8587981,"Meilen, Eichholz",47.2818858104788,8.62318892489604,"[(8588032, 408), (8588003, 436), (8588030, 590)]"
8587982,"Meilen, Zentrum Feldmeilen",47.2786436505508,8.61599341946924,"[(8588030, 290), (8588011, 463), (8503103, 517), (8588032, 543)]"
8587983,"Meilen, Schulhaus Feld",47.2765105422464,8.62295536292213,"[(8587984, 294), (8588029, 385), (8588030, 427)]"
8587984,"Meilen, Schwabach",47.2753830074029,8.62573115715045,"[(8588029, 175), (8587983, 294)]"
8587992,"Herrliberg, Alterssiedlung",47.287053353907,8.61506815472647,"[(8590643, 131), (8588007, 222), (8590645, 233), (8587999, 269), (8588001, 272), (8587998, 284), (8587993, 368), (8588009, 493), (8588005, 559), (8587996, 565), (8588003, 578), (8588010, 597)]"
8587993,"Herrliberg, Aryanastrasse",47.2884365611326,8.61857158433502,"[(8588001, 236), (8590643, 271), (8587996, 310), (8587999, 316), (8590645, 351), (8587992, 368), (8588009, 396), (8588007, 448), (8588003, 561)]"
8587994,"Herrliberg, Bergstrasse",47.294365052781,8.61434051934623,"[(8587997, 171), (8588008, 320), (8588009, 504), (8588002, 561), (8590641, 573)]"
8587996,"Herrliberg, Forchstrasse",47.2870289798871,8.62129347964628,"[(8588001, 300), (8587993, 310), (8587999, 346), (8588003, 374), (8588006, 387), (8590643, 435), (8587992, 565)]"
8587997,"Herrliberg, Freudacherstrasse",47.2954373502834,8.61329847361651,"[(8587994, 171), (8588008, 390), (8587975, 463), (8588002, 527)]"
8587998,"Herrliberg, Gartenstrasse",47.2857676090264,8.61257982138911,"[(8587992, 284), (8588007, 364), (8588005, 378), (8590643, 391), (8503660, 397), (8595723, 400), (8590647, 439), (8590645, 447), (8587999, 468), (8588001, 510), (8503103, 526), (8588010, 580), (8588011, 591)]"
8587999,"Herrliberg, Grundhofstrasse",47.286145414082,8.61770920166215,"[(8588001, 80), (8590643, 155), (8587992, 269), (8587993, 316), (8588003, 320), (8587996, 346), (8590645, 444), (8587998, 468), (8588007, 476), (8588032, 526)]"
8588000,"Herrliberg, Grüt",47.2901853220158,8.60586042306296,"[(8588010, 357), (8590644, 375), (8590641, 433), (8588002, 485), (8588005, 496)]"
8588001,"Herrliberg, Harzerstrasse",47.2867060230628,8.61802361201163,"[(8587999, 80), (8590643, 142), (8587993, 236), (8587992, 272), (8587996, 300), (8588003, 364), (8590645, 407), (8588007, 458), (8587998, 510), (8588009, 573), (8588032, 596)]"
8588002,"Herrliberg, Holzwies",47.2934084963185,8.60832180694179,"[(8590644, 132), (8588008, 329), (8590641, 382), (8587975, 466), (8588000, 485), (8587967, 492), (8587972, 516), (8588010, 516), (8587997, 527), (8587994, 561)]"
8588003,"Herrliberg, Humrigen",47.2843538629424,8.62004482140118,"[(8588032, 303), (8587999, 320), (8588001, 364), (8587996, 374), (8587981, 436), (8590643, 474), (8587993, 561), (8587992, 578), (8588006, 593)]"
8588005,"Herrliberg, Pfarrgasse",47.2870960084148,8.60890571187655,"[(8588010, 349), (8587998, 378), (8588007, 464), (8503660, 489), (8588000, 496), (8590641, 535), (8587992, 559), (8590645, 575)]"
8588006,"Herrliberg, Rietli",47.2867547713891,8.62554251094076,"[(8587996, 387), (8588003, 593)]"
8588007,"Herrliberg, Schulhaus",47.2884000010546,8.61363983342452,"[(8590645, 112), (8587992, 222), (8590643, 323), (8587998, 364), (8588009, 364), (8588010, 394), (8590641, 445), (8587993, 448), (8588001, 458), (8588005, 464), (8587999, 476), (8588008, 598)]"
8588008,"Herrliberg, Sportplatz",47.2927017301104,8.61179828709182,"[(8590641, 261), (8587994, 320), (8588002, 329), (8587997, 390), (8590644, 426), (8588009, 447), (8588010, 448), (8590645, 587), (8588007, 598)]"
8588009,"Herrliberg, Tennisplätze",47.2907154227796,8.61576884064818,"[(8590645, 274), (8588007, 364), (8587993, 396), (8588008, 447), (8590641, 480), (8587992, 493), (8587994, 504), (8590643, 504), (8588010, 568), (8588001, 573)]"
8588010,"Herrliberg, Vogtei",47.2896552159388,8.60971419563237,"[(8590641, 188), (8588005, 349), (8588000, 357), (8588007, 394), (8588008, 448), (8590645, 470), (8590644, 489), (8588002, 516), (8588009, 568), (8587998, 580), (8587992, 597)]"
8588011,"Herrliberg-Feldmeilen, Bahnhof",47.2813434329008,8.61279541705733,"[(8503103, 64), (8590647, 182), (8595723, 206), (8503660, 396), (8587982, 463), (8588032, 553), (8587998, 591)]"
8588014,"Meilen, Allmend",47.2710311070842,8.64820700556225,"[(8588023, 310), (8576080, 369), (8503104, 390), (8588027, 438), (8576082, 551)]"
8588017,"Meilen, Bezibüel/Chilchbüel",47.2791677725733,8.66323582026766,"[(8588020, 287), (8588019, 436)]"
8588019,"Meilen, Bundi",47.2811788902891,8.66701772761433,"[(8588031, 349), (8588017, 436)]"
8588020,"Meilen, Charrhalten",47.2770285907408,8.66356819692283,"[(8588017, 287), (8588025, 467), (8588034, 527)]"
8588023,"Meilen, Hallenbad",47.2723050197139,8.64535036295835,"[(8588014, 310), (8503104, 346), (8505448, 370), (8576080, 385)]"
8588024,"Meilen, Halten",47.2713297783473,8.65738778776723,"[(8588027, 403), (8588034, 477), (8588025, 484)]"
8588025,"Meilen, Hohenegg",47.2739994588492,8.66099003205705,"[(8588034, 123), (8588020, 467), (8588024, 484)]"
8588027,"Meilen, Ormis",47.2707933879355,8.6530219754858,"[(8588024, 403), (8588014, 438), (8576082, 515)]"
8588028,"Meilen, Parkresidenz",47.2700985104554,8.63858604886799,"[(8530644, 283), (8505448, 341), (8503661, 375), (8503104, 521), (8576080, 579)]"
8588029,"Meilen, Plätzli",47.2741030738706,8.62529996581401,"[(8587984, 175), (8587983, 385)]"
8588030,"Meilen, Rebbergstrasse",47.2784120600963,8.61917345557547,"[(8587982, 290), (8587983, 427), (8588032, 515), (8587981, 590)]"
8588031,"Meilen, Roren",47.2828974212162,8.66991928598244,"[(8588019, 349)]"
8588032,"Meilen, Tobel",47.2822636432584,8.61873328108618,"[(8588003, 303), (8587981, 408), (8588030, 515), (8587999, 526), (8587982, 543), (8503103, 548), (8588011, 553), (8588001, 596)]"
8588033,"Meilen, Vorderer Pfannenstiel",47.2855238623972,8.67994448455461,[]
8588034,"Meilen, Zur Au",47.2732680529278,8.66180749896571,"[(8588025, 123), (8588024, 477), (8588020, 527)]"
8588051,"Uster, Dammstrasse",47.3534491024058,8.71567946656186,"[(8588055, 121), (8580872, 276), (8573504, 385), (8587860, 480), (8503125, 494), (8581545, 541), (8581548, 590)]"
8588052,"Uster, Gschwader",47.3582688760385,8.71277790819375,"[(8587859, 110), (8587860, 243), (8591857, 288), (8588054, 289), (8503152, 425), (8588053, 486), (8588055, 588)]"
8588053,"Uster, Haberweid",47.3618773324817,8.71350554357399,"[(8588054, 263), (8503152, 269), (8588052, 486), (8587859, 542)]"
8588054,"Uster, Meieracher",47.3600457522121,8.71459250506792,"[(8588053, 263), (8588052, 289), (8503152, 379), (8587859, 381), (8587860, 508), (8591857, 513)]"
8588055,"Uster, Oberlandstrasse",47.3543558863687,8.7157513317846,"[(8588051, 121), (8580872, 330), (8587860, 389), (8573504, 494), (8588052, 588), (8503125, 596)]"
8588058,"Uster, Wageren",47.3519032736892,8.72710603697745,"[(8588050, 202), (8503567, 418), (8588059, 425), (8588056, 562), (8503872, 587)]"
8588078,"Zürich, Central",47.3768440104406,8.54393955051998,"[(8503499, 42), (8587349, 221), (8503500, 223), (8503446, 364), (8591174, 378), (8503000, 382), (8591123, 394), (8591327, 397), (8591067, 415), (8587348, 420), (8503088, 422), (8503088, 439), (8591379, 472), (8530822, 524)]"
8588094,"Dänikon, Rotflue",47.4470029358486,8.39710991731021,[]
8588095,"Gutenswil, Grossenacher",47.3823428932854,8.71710778786381,"[(8503157, 416), (8588098, 430)]"
8588096,"Volketswil, Hofwisen",47.3810959623905,8.67298254110171,"[(8590852, 394), (8576128, 486), (8503154, 503), (8589106, 548)]"
8588097,"Volketswil, Gries",47.3859801134497,8.67931566385564,"[(8589128, 362), (8503156, 426), (8503151, 469)]"
8588098,"Gutenswil, Sternen",47.3853658179585,8.71876967113966,"[(8503157, 392), (8588095, 430)]"
8588205,"Erlenbach ZH, Allmend",47.3063053204636,8.6053394001981,"[(8587970, 251), (8587969, 270), (8587968, 395), (8587978, 492)]"
8588279,"Tagelswangen, Gerenhalde",47.4314059613092,8.66796994181563,"[(8503378, 382), (8575938, 551)]"
8588311,"Effretikon, Brüttenerstrasse",47.4319589521938,8.68603506218179,"[(8588312, 301), (8595706, 409), (8575909, 433), (8575946, 554), (8575919, 572)]"
8588312,"Effretikon, Kapelle Rikon",47.4329251530902,8.68904441838401,"[(8595706, 114), (8575946, 256), (8588311, 301), (8575909, 565)]"
8588313,Baltenswil,47.4302331152577,8.64172116921,[]
8588314,"Dietlikon, Bahnhof",47.4200167032303,8.61895785990725,"[(8503306, 37), (8590539, 309), (8595081, 405), (8590541, 495), (8595075, 520), (8595080, 558), (8595073, 563)]"
8588315,"Bassersdorf, Grindel",47.4465230044196,8.60841163847022,"[(8596100, 345), (8576155, 492)]"
8588316,"Bassersdorf, Dietlikonerstr.",47.4417659789114,8.62966577809544,"[(8576159, 177), (8576161, 244), (8576160, 279), (8503700, 517), (8503307, 528), (8503307, 528), (8590503, 595)]"
8588317,"Bassersdorf, Bächli",47.4389224938986,8.63573838941693,[]
8588318,"Brüttisellen, Ob. Wangenstr.",47.4258210354094,8.63484905728553,"[(8588319, 459)]"
8588319,"Brüttisellen, Zentrum",47.4238458109543,8.63069884067232,"[(8590507, 300), (8588318, 459), (8510277, 517)]"
8588469,"Nürensdorf, Lindauerstrasse",47.4442326384287,8.65186314876913,"[(8595707, 343), (8595267, 469)]"
8588502,Kleinikon,47.4568193064184,8.68570268552662,[]
8588553,"Zürich Flughafen, Fracht",47.4521604035367,8.57173342541451,"[(8580301, 553)]"
8588735,"Grafstal, Engelacher",47.4422581049472,8.70039014042402,"[(8575943, 282), (8503381, 341), (8503374, 398)]"
8588736,"Kloten, Ackerstrasse",47.4548330971254,8.58715749884499,"[(8588738, 277), (8576152, 344), (8580434, 368), (8588737, 398), (8580437, 559), (8580438, 575)]"
8588737,"Kloten, Geissbergstrasse",47.4548695420083,8.59155026058495,"[(8588738, 185), (8580438, 227), (8588736, 398), (8580437, 443), (8576153, 493), (8580434, 498)]"
8588738,"Kloten, Härdlen",47.455713841391,8.58992430992046,"[(8588737, 185), (8588736, 277), (8580438, 411), (8580434, 516), (8580437, 562)]"
8588739,"Kloten, Lägernstrasse",47.4451257107693,8.57639568173974,"[(8588740, 216), (8580432, 245), (8590697, 462), (8573213, 518), (8573213, 518), (8502471, 536)]"
8588740,"Kloten, Neubrunnenstrasse",47.4448766240902,8.57874926778446,"[(8580432, 132), (8588739, 216), (8590697, 280), (8502471, 568)]"
8588744,"Wallisellen, Kaserne",47.4168559600617,8.58553154818051,"[(8590881, 389), (8588745, 416), (8590886, 501), (8590889, 587)]"
8588745,"Wallisellen, Steinacker",47.4188071335453,8.58194727019637,"[(8590889, 403), (8588744, 416)]"
8588984,"Horgen, Gehren",47.2518638598974,8.60162037492133,"[(8503898, 417), (8573556, 460), (8577867, 469), (8588985, 497)]"
8588985,"Horgen, Heubach",47.2546869531959,8.59805406324288,"[(8573556, 285), (8590663, 457), (8503898, 489), (8588984, 497), (8580724, 594), (8573555, 597)]"
8589106,"Volketswil, Zimikon",47.3851772703819,8.67231778779137,"[(8576139, 357), (8588096, 548), (8503156, 556)]"
8589108,"Oberrieden, Tannenbach",47.2691476106984,8.58254914143681,"[(8589110, 312), (8579189, 397), (8579188, 559), (8590736, 592)]"
8589109,"Horgen, Säntisstrasse",47.264417240101,8.586187318338,"[(8579190, 225), (8579192, 295), (8590650, 372), (8589110, 403), (8573553, 472), (8594182, 477)]"
8589110,"Horgen, Widmerheim",47.2671969936295,8.58444458668657,"[(8589108, 312), (8579189, 345), (8589109, 403), (8579190, 419)]"
8589111,"Horgen, Gumelenstrasse",47.2608813777694,8.59208026660265,"[(8573553, 286), (8594182, 293), (8573554, 335), (8503855, 341), (8503855, 341), (8502208, 351), (8573552, 362), (8579192, 420), (8573555, 440), (8503204, 446), (8590660, 489), (8503672, 538), (8590655, 584), (8577912, 592)]"
8589128,"Volketswil, Chammwisen",47.3883520783529,8.67738428599451,"[(8503156, 104), (8590851, 270), (8588097, 362), (8503151, 389)]"
8590200,"Bergdietikon, Baltenschwil",47.3927855419,8.39258240827762,"[(8590204, 179), (8590203, 234), (8590201, 351), (8502186, 582), (8502186, 582)]"
8590201,"Bergdietikon, Bergli",47.3911253173387,8.3895730520754,"[(8590204, 297), (8590200, 351), (8590202, 433), (8590205, 453), (8590203, 554)]"
8590202,"Bergdietikon, Bernold",47.388035822533,8.38812676446776,"[(8590205, 349), (8590201, 433)]"
8590203,"Bergdietikon, Dünni",47.394500444223,8.393130380601,"[(8590200, 234), (8590204, 278), (8502186, 547), (8502186, 551), (8590201, 554)]"
8590204,"Bergdietikon, Rietwies",47.3932112320809,8.39071391248639,"[(8590200, 179), (8590203, 278), (8590201, 297)]"
8590205,"Bergdietikon, Vorbühl",47.3896414093652,8.38508147565417,"[(8590202, 349), (8590201, 453)]"
8590217,"Dietikon, Bahnhofstrasse",47.4043022897811,8.40368558519088,"[(8587020, 218), (8587020, 218), (8503508, 230), (8503508, 230), (8590529, 252), (8590223, 358), (8517376, 396), (8590513, 583), (8595511, 599)]"
8590218,"Dietikon, Gjuchstrasse",47.4079623128426,8.39322919528227,"[(8590531, 423), (8590222, 428), (8590535, 448), (8590533, 503)]"
8590220,"Dietikon, Marmori-Weiher",47.3992799838144,8.39447785352737,"[(8591893, 331), (8590521, 370), (8590516, 376), (8502270, 473), (8590532, 482), (8590536, 595)]"
8590222,"Dietikon, Oetwilerstrasse",47.406247848652,8.39722669829716,"[(8590535, 388), (8590218, 428), (8590533, 554), (8590223, 585)]"
8590223,"Dietikon, Stadthaus",47.4025512253589,8.40069419529434,"[(8517376, 83), (8590217, 358), (8590521, 406), (8590529, 423), (8587020, 559), (8587020, 559), (8503508, 581), (8503508, 581), (8590222, 585)]"
8590241,"Kindhausen AG, Eichholz",47.3941963875977,8.38051803401021,"[(8587018, 412)]"
8590268,"Spreitenbach, ASP",47.4142117310803,8.3795209040447,"[(8502508, 420)]"
8590269,"Spreitenbach, Breiti",47.429977881048,8.35891355142413,"[(8590396, 139), (8590278, 585)]"
8590270,"Spreitenbach, Brüel",47.4180594961757,8.37195708935136,"[(8591891, 331), (8590279, 426), (8590279, 426), (8502508, 442), (8590279, 446), (8590279, 446), (8590271, 512), (8590275, 554), (8590397, 579)]"
8590271,"Spreitenbach, Dorf",47.4195122127196,8.36671991124421,"[(8591891, 183), (8590279, 205), (8590279, 205), (8590279, 222), (8590279, 222), (8595708, 379), (8590397, 453), (8590270, 512), (8590277, 589)]"
8590272,"Spreitenbach, Fegistrasse",47.4302513462254,8.36981909897486,"[(8590274, 229)]"
8590273,"Spreitenbach, Furttalstrasse",47.4254624617068,8.36466276924329,"[(8590276, 202), (8590277, 335), (8590278, 345)]"
8590274,"Spreitenbach, Härdlistrasse",47.4312783472029,8.36779788958531,"[(8590272, 229)]"
8590275,"Spreitenbach, IKEA",47.4220650066085,8.373574056863,"[(8590397, 337), (8590279, 487), (8590279, 487), (8590279, 506), (8590279, 506), (8590270, 554)]"
8590276,"Spreitenbach, Interio",47.4269757476837,8.36460887032624,"[(8590273, 202), (8590278, 372), (8590277, 524)]"
8590277,"Spreitenbach, Langäcker",47.4231833344629,8.36310868380155,"[(8595708, 316), (8590273, 335), (8590278, 404), (8590276, 524), (8590271, 589)]"
8590278,"Spreitenbach, Rotzenbühl",47.4258028029072,8.36088086189663,"[(8590273, 345), (8590276, 372), (8590277, 404), (8590396, 529), (8590269, 585)]"
8590279,"Spreitenbach, Shopping Center",47.4204482515178,8.3685165418127,"[(8590271, 205), (8591891, 211), (8590397, 258), (8590270, 446), (8595708, 502), (8590275, 506)]"
8590279,Shopping Center,47.4204117827852,8.36877705324513,"[(8590271, 205), (8591891, 211), (8590397, 258), (8590270, 446), (8595708, 502), (8590275, 506)]"
8590314,"Würenlos, Büntenstrasse",47.4444938788455,8.36730381617897,"[(8578679, 382)]"
8590318,"Zürich, Farbhof",47.3911313988428,8.47917101852595,"[(8591284, 409), (8591361, 426), (8591051, 459), (8591274, 492)]"
8590396,"Spreitenbach, Spreiti West",47.4292060938837,8.35788947200009,"[(8590269, 139), (8590278, 529)]"
8590397,"Spreitenbach, Center Spreitenb",47.4221561755295,8.36985503158623,"[(8590279, 252), (8590279, 252), (8590279, 258), (8590279, 258), (8590275, 337), (8590271, 453), (8591891, 456), (8590270, 579)]"
8590461,"Adlikon b. R., Pächterried",47.445897264461,8.47004413523802,"[(8576278, 356), (8576252, 426), (8576253, 443)]"
8590462,"Adlikon b. R., Leematten",47.4525856138756,8.46706172849433,"[(8576281, 90), (8576255, 447), (8576253, 592), (8576252, 600)]"
8590463,"Adliswil, Badstrasse",47.3135960862281,8.5338065541137,"[(8590473, 272), (8595717, 351), (8590480, 519), (8590484, 525), (8590474, 563)]"
8590464,"Adliswil, Bahnhof",47.3117811023922,8.52431136155924,"[(8503096, 66), (8590478, 206), (8590465, 314), (8590474, 348), (8503082, 428), (8590485, 512), (8595717, 544)]"
8590465,"Adliswil, Baumgartenweg",47.3096006031465,8.52561391872139,"[(8590485, 265), (8590464, 314), (8590464, 314), (8503096, 377), (8590478, 482), (8590474, 499), (8590470, 515), (8590480, 566), (8590486, 568)]"
8590466,"Adliswil, Bodenacker",47.3164037068786,8.51773569367857,"[(8590469, 267), (8590479, 389), (8503082, 480), (8503095, 549)]"
8590467,"Adliswil, Büchel",47.301103106761,8.52210150596,"[(8590475, 299), (8503099, 403)]"
8590469,"Adliswil, Feldblumenstrasse",47.3146253614429,8.51908316660494,"[(8503082, 213), (8590466, 267), (8503096, 565), (8590478, 587)]"
8590470,"Adliswil, Friedhof",47.3068839894096,8.52963837119481,"[(8590481, 233), (8590485, 326), (8590480, 455), (8590482, 505), (8590465, 515)]"
8590471,"Adliswil, Baldernstrasse",47.3207884125064,8.51558872014922,"[(8590479, 228), (8591278, 335), (8503095, 560)]"
8590472,"Adliswil, Grüt",47.3224386727333,8.52898260103731,"[(8506549, 297), (8590477, 410), (8506636, 486), (8590679, 588)]"
8590473,"Adliswil, Hofackerstrasse",47.3151369463988,8.53576488143336,"[(8590463, 272), (8590476, 503), (8590484, 555), (8595717, 595)]"
8590474,"Adliswil, Krone",47.3130783958505,8.52764411126379,"[(8595717, 219), (8590478, 222), (8503096, 325), (8590464, 348), (8590464, 348), (8590465, 499), (8590484, 513), (8590485, 523), (8590463, 563), (8590480, 565)]"
8590475,"Adliswil, Landolt-Junker-Str.",47.3033448728597,8.52226320271116,"[(8503099, 263), (8590467, 299), (8590486, 343)]"
8590476,"Adliswil, Ahornweg",47.3187909806225,8.53439045904846,"[(8590679, 399), (8590484, 495), (8590473, 503), (8506549, 528), (8590670, 595)]"
8590477,"Adliswil, Moos",47.3251362195887,8.53114754087234,"[(8506636, 190), (8506549, 369), (8590472, 410), (8590679, 597)]"
8590478,"Adliswil, Poststrasse",47.3132002058073,8.52520069369064,"[(8503096, 150), (8590464, 206), (8590464, 206), (8590474, 222), (8595717, 441), (8503082, 467), (8590465, 482), (8590469, 587)]"
8590479,"Adliswil, Zopf",47.319162459951,8.51635228814083,"[(8590471, 228), (8590466, 389), (8503095, 473), (8591278, 562)]"
8590480,"Adliswil, Rifertstrasse",47.3099477836289,8.53183026048837,"[(8590482, 283), (8590485, 320), (8590481, 392), (8595717, 432), (8590470, 455), (8590463, 519), (8590474, 565), (8590465, 566)]"
8590481,"Adliswil, Rütistrasse/Wacht",47.3070179960516,8.53219856975491,"[(8590470, 233), (8590482, 313), (8590480, 392), (8590485, 446)]"
8590482,"Adliswil, Schulhaus Kopfholz",47.3087965974842,8.53444435796552,"[(8590480, 283), (8590481, 313), (8590470, 505), (8590485, 544)]"
8590484,"Adliswil, Tiefacker",47.3165681399064,8.53001566361419,"[(8595717, 483), (8590476, 495), (8590474, 513), (8590463, 525), (8590473, 555)]"
8590485,"Adliswil, Tobelhof",47.3091986018442,8.52847954447813,"[(8590465, 265), (8590480, 320), (8590470, 326), (8590481, 446), (8590464, 512), (8590464, 512), (8595717, 520), (8590474, 523), (8590482, 544), (8503096, 561)]"
8590486,"Adliswil, Wanneten-/Haldenstr.",47.3059154767601,8.52246981522654,"[(8590475, 343), (8503099, 427), (8590465, 568)]"
8590487,"Aesch bei Maur, Im Brünneli",47.3302751827274,8.65471080822018,"[(8590488, 502)]"
8590488,"Aesch bei Maur, Zollingerheim",47.3266828321782,8.65634574203751,"[(8590487, 502), (8590785, 586)]"
8590503,"Bassersdorf, Chlupfgasse",47.4446275362315,8.62462622935083,"[(8576160, 346), (8576158, 380), (8576161, 427), (8576159, 437), (8588316, 595)]"
8590504,"Benglen, Gerlisbrunnen",47.3609219978825,8.63279191528461,"[(8594249, 280), (8594250, 423), (8591825, 528)]"
8590505,"Binz bei Maur, Fridlimatt",47.3592668549544,8.62461724619799,"[(8596005, 240), (8591826, 420), (8594250, 506)]"
8590507,"Brüttisellen, Gsellhof",47.4217064073206,8.62966577809544,"[(8510277, 220), (8588319, 300), (8590508, 415)]"
8590508,"Brüttisellen, Haldenbrücke",47.4188132118543,8.63136359398266,"[(8510277, 238), (8590507, 415), (8594338, 463)]"
8590510,"Dübendorf, Sport Heerenschürli",47.404472529051,8.59561064566973,"[(8591194, 435), (8587652, 445), (8590579, 564)]"
8590512,"Dietikon, Birmensdorferstrasse",47.3975773985575,8.41739387642845,"[(8590619, 249), (8503512, 326), (8590517, 526), (8590839, 576), (8590840, 600)]"
8590513,"Dietikon, Dörfli",47.4004109564656,8.40662307617036,"[(8590529, 338), (8590525, 407), (8590517, 540), (8517376, 551), (8590217, 583)]"
8590514,"Dietikon, Rapidplatz",47.4102117024928,8.40499712550588,"[(8595511, 237), (8587020, 586), (8587020, 586), (8503508, 590), (8503508, 590)]"
8590515,"Dietikon, Hagackerstrasse",47.4175306730896,8.39679550696072,"[(8590519, 208), (8590528, 359), (8590520, 369), (8590523, 531)]"
8590516,"Dietikon, Hätschen",47.4020648082454,8.39384004967556,"[(8590521, 234), (8590532, 275), (8591893, 291), (8590533, 353), (8590220, 376), (8590536, 536), (8590531, 561)]"
8590517,"Dietikon, Hofacker",47.3982584392623,8.41167160806781,"[(8590525, 239), (8590512, 526), (8590513, 540)]"
8590518,"Dietikon, Lätten",47.4021803327165,8.38515334087691,"[(8590537, 258), (8590536, 342), (8590532, 514)]"
8590519,"Dietikon, Lerzen",47.4176400851983,8.39908621093555,"[(8590515, 208), (8590523, 477), (8590520, 531), (8590528, 561)]"
8590520,"Dietikon, Moosmatt",47.4194453521686,8.39385801598124,"[(8590528, 185), (8590515, 369), (8590519, 531)]"
8590521,"Dietikon, Oberdorf",47.4017364741549,8.39637329877713,"[(8590516, 234), (8590220, 370), (8590223, 406), (8517376, 419), (8591893, 473), (8590532, 504), (8590533, 538)]"
