,stop_id,stop_name,latitude,longitude
0,176,Zimmerberg-Basistunnel,47.3516780901371,8.52195777551452
1,8500926,"Oetwil a.d.L., Schweizäcker",47.4236270123012,8.4031825286317
2,8502075,"Zürich Flughafen, Carterminal",47.4510244676285,8.56372943623189
3,8502186,Dietikon Stoffelbach,47.3933267759652,8.39896044679575
4,8502186,Dietikon Stoffelbach,47.3933997509195,8.39894248049007
5,8502187,Rudolfstetten Hofacker,47.3646702178563,8.37695172233176
6,8502187,Rudolfstetten Hofacker,47.3647371479356,8.37703257070734
7,8502188,Zufikon Hammergut,47.3559564133261,8.35459265490691
8,8502188,Zufikon Hammergut,47.3559016432438,8.35460163805976
9,8502188,Zufikon Hammergut,47.3559016432438,8.35460163805975
10,8502208,Horgen Oberdorf,47.2587475534877,8.58981651208635
11,8502209,Oberrieden Dorf,47.2767299516396,8.57765332313768
12,8502220,Urdorf,47.3908820565997,8.43473136141437
13,8502221,Birmensdorf ZH,47.3574290986674,8.4375520714069
14,8502222,Bonstetten-Wettswil,47.3259034425176,8.46819360575248
15,8502223,Hedingen,47.2987820476816,8.44596928562027
16,8502224,Affoltern am Albis,47.2760717207306,8.44659810631924
17,8502229,Urdorf Weihermatt,47.3809682263408,8.43033859967441
18,8502268,Zufikon Belvédère,47.3576725137737,8.35928186069067
19,8502270,Bergfrieden,47.397467944766,8.39896044679575
20,8502273,Bremgarten,47.3515198524717,8.34648985104303
21,8502273,Bremgarten,47.3514711638638,8.34656171626577
22,8502274,Zufikon,47.3525849045311,8.35468248643534
23,8502275,Widen Heinrüti,47.3619260114885,8.35487113264503
24,8502276,Berikon-Widen,47.3619260114885,8.36636956828336
25,8502276,Berikon-Widen,47.3621815755374,8.36679177646695
26,8502277,Rudolfstetten,47.369762745833,8.38153313028141
27,8502277,Rudolfstetten,47.3695011345125,8.38118278732055
28,8502278,Reppischhof,47.384003394493,8.39617566941459
29,8502278,Reppischhof,47.3847271863434,8.39622956833165
30,8502471,"Kloten, Waldeggweg",47.4411280309022,8.57578482734645
31,8502495,"Zürich Wollishofen, Bahnhof",47.3481237143728,8.53332146386021
32,8502508,"Spreitenbach, Raiacker",47.4163939893986,8.37617917118731
33,8502553,"Unterlunkhofen, Breitenäcker",47.3229988969571,8.37978141547713
34,8502559,"Waldegg, Birmensdorferstrasse",47.3683025730349,8.46346846735736
35,8502560,"Berikon, Kirche",47.3510512227562,8.37141810018081
36,8502570,"Rottenschwil, Hecht",47.3190589331876,8.372091836644
37,8502572,"Zürich, Goldbrunnenplatz",47.3702920484894,8.51391785372053
38,8502574,"Affoltern a.A., Stigeli",47.2784669105587,8.45910265507593
39,8502575,"Widen, Dorf",47.3675724714769,8.36359377405504
40,8502750,"Bellikon, Dorf",47.3895319390895,8.34336371385385
41,8502758,"Hausen am Albis, Post",47.2447475336943,8.53297112089936
42,8502758,Post,47.2447475336943,8.53297112089936
43,8502762,"Langnau a.A., Albispasshöhe",47.2761509526624,8.52069115096373
44,8502763,"Hausen am Albis, Riedmatt",47.2629785384073,8.51724162027223
45,8502764,"Hausen am Albis, Tüfenbach",47.2590158104091,8.5220386238901
46,8502771,"Aeugst am Albis, Dorf",47.2678309520619,8.48534244452871
47,8502776,"Gattikon, Obstgarten",47.2847255843239,8.5511170896411
48,8502779,"Ottenbach, Zentrum",47.2801672466905,8.40430542273701
49,8502876,"Aesch ZH, Gemeindehaus",47.3382079319594,8.43870191497073
50,8502879,"Jonen, Taverne",47.2961806346557,8.39551091610425
51,8502883,"Zwillikon, Gemeindeplatz",47.2874006824704,8.43218912915996
52,8502885,"Bonstetten, Dorfplatz",47.3150882242354,8.46778038072173
53,8502894,"Oberwil-Lieli, Dreispitz",47.3371730284335,8.3864199654277
54,8502950,"Birmensdorf ZH, Zentrum",47.3539359682156,8.43717477898752
55,8502953,"Affoltern a.A., Kronenplatz",47.2812215495339,8.45441344929217
56,8502955,"Oberlunkhofen, Post",47.3117750117374,8.38982458035498
57,8502963,"Hausen am Albis, Heisch",47.2490528118645,8.5297641353346
58,8502979,"Oberwil-Lieli, Lieli Dorf",47.3412881718265,8.39690330479483
59,8502992,"Langnau am Albis, Unteralbis",47.2857676090264,8.52789563954337
60,8503000,Zürich HB,47.3781762039461,8.54021154209037
61,8503001,Zürich Altstetten,47.3914841248792,8.48896265512422
62,8503003,Zürich Stadelhofen,47.3666111556789,8.54848502585826
63,8503004,Zürich Tiefenbrunnen,47.3501261233109,8.56138483334001
64,8503006,Zürich Oerlikon,47.411530894433,8.54413717988252
65,8503007,Zürich Seebach,47.4187524287319,8.54465820274738
66,8503008,Zürich Affoltern,47.42091018661,8.50858186093212
67,8503009,Zürich Wollishofen,47.3474420259121,8.53359994159833
68,8503010,Zürich Enge,47.3640982664424,8.53082414737001
69,8503011,Zürich Wiedikon,47.3714783972162,8.52348491149773
70,8503015,Zürich Wipkingen,47.3930409564212,8.52937785976238
71,8503016,Zürich Flughafen,47.4503866318972,8.56239992961121
72,8503020,Zürich Hardbrücke,47.385195516951,8.51712483928528
73,8503051,Zürich Binz,47.362765717286,8.5182926491548
74,8503052,Zürich Friesenberg,47.3647979933886,8.50750388259102
75,8503053,Zürich Schweighof,47.3649440221893,8.50353332903466
76,8503054,Zürich Triemli,47.3649926983664,8.49537662625372
77,8503055,Uitikon Waldegg,47.3659236216092,8.46592086808334
78,8503056,Ringlikon,47.3602952403085,8.47742828687451
79,8503057,Uetliberg,47.352073682225,8.48755230012795
80,8503059,"Zürich Stadelhofen, Bahnhof",47.3663495287263,8.54812569974456
81,8503061,Langwies ZH,47.2960526930082,8.69438939432526
82,8503062,Egg,47.3014990777941,8.68961035701308
83,8503063,Hinteregg,47.3057327365344,8.68433724629457
84,8503064,Scheuren,47.3225969975727,8.65955272760226
85,8503065,Forch,47.3253371600043,8.64797344358835
86,8503066,Zumikon,47.3316877011018,8.62380876244217
87,8503067,Zollikerberg,47.3460481890667,8.60339903918413
88,8503068,Maiacher,47.328168511864,8.63106714993886
89,8503072,Neuhaus bei Hinteregg,47.3127799602696,8.67403356998428
90,8503074,Neue Forch,47.3258121070389,8.63784044718207
91,8503075,Waltikon,47.3367895002108,8.61701749889328
92,8503077,Spital Zollikerberg,47.3473081217871,8.59679642184493
93,8503078,Waldburg,47.3454699490061,8.5930234976511
94,8503081,Felsenegg,47.3101426909703,8.5074140510626
95,8503082,Adliswil (Luftseilbahnstation),47.3131697533444,8.52005334711192
96,8503083,"Zürich, Römerhof",47.3680896277911,8.56027990554039
97,8503084,"Zürich, Dolder",47.3732000763623,8.57452718594851
98,8503086,Zürich Brunau,47.3516415737949,8.52623375626752
99,8503087,Zürich Saalsporthalle,47.3577942209058,8.52196675866736
100,8503088,Zürich HB SZU,47.3774279898193,8.53916949636064
101,8503089,Wildpark-Höfli,47.296540088104,8.53564810044641
102,8503090,Zürich Selnau,47.3722388631333,8.53172246265426
103,8503091,Zürich Giesshübel,47.3626135976618,8.52201167443157
104,8503093,Zürich Manegg,47.3379339888824,8.51963113892832
105,8503094,Zürich Leimbach,47.3330453878964,8.51856214374007
106,8503095,Sood-Oberleimbach,47.3196191932506,8.52151760102524
107,8503096,Adliswil,47.3122744430936,8.52425746264218
108,8503097,Langnau-Gattikon,47.287309280438,8.54383175268587
109,8503098,Sihlwald,47.2682942245761,8.55751309446492
110,8503099,Sihlau,47.3032900481924,8.52516476107927
111,8503100,Zollikon,47.337337396819,8.56973916548349
112,8503101,Küsnacht ZH,47.319156370147,8.58063572988137
113,8503102,Erlenbach ZH,47.3057936500132,8.59152331112642
114,8503103,Herrliberg-Feldmeilen,47.2818248694552,8.61273253498743
115,8503104,Meilen,47.2698120232242,8.64430831722863
116,8503111,Winkel am Zürichsee,47.2972102490254,8.59898831113849
117,8503125,Uster,47.3503695721055,8.71870678906976
118,8503126,Nänikon-Greifensee,47.3693612023433,8.68641235460117
119,8503127,Schwerzenbach ZH,47.3843865796517,8.6586723786237
120,8503128,Dübendorf,47.4000826120679,8.62342248686994
121,8503129,Wallisellen,47.4127223942356,8.59192755300433
122,8503141,Küsnacht Goldbach,47.3268594110503,8.5759644904033
123,8503147,Stettbach,47.3972125517017,8.59614065168743
124,8503150,"Volketswil, Dorf",47.3895866742558,8.69322158445574
125,8503151,"Volketswil, Zentrum",47.3891670365281,8.6815075531492
126,8503152,"Uster, Brandschenke",47.3611410570261,8.71073873249851
127,8503154,"Volketswil, Volkiland Chliriet",47.3819049501849,8.66755671678488
128,8503155,"Volketswil, Chrummacher",47.3797090972903,8.68346588046885
129,8503156,"Volketswil, Hegnau",47.388388569287,8.67623444243068
130,8503157,"Gutenswil, Unterdorf",47.3849035710867,8.71449369038666
131,8503168,"Riedikon, Chis/Naturstation",47.3263540285675,8.71009194549386
132,8503189,"Riedikon, Dorf",47.3322052091535,8.71133162058612
133,8503200,Kilchberg ZH,47.3244298775167,8.54801790191045
134,8503200,Kilchberg,47.3244298775167,8.54801790191045
135,8503201,Rüschlikon,47.3071337287872,8.5551595084202
136,8503202,Thalwil,47.2959795833563,8.56477148196161
137,8503203,Oberrieden,47.279673606346,8.5784618068935
138,8503204,Horgen,47.2614849296062,8.59691320283188
139,8503253,"Uster, Hegetsberg",47.3493409932978,8.73322356406316
140,8503254,"Uster, Niederuster",47.3445386648561,8.70217778783966
141,8503303,Illnau,47.4088195240113,8.72273124154318
142,8503304,Kemptthal,47.4528407384287,8.70558240276695
143,8503305,Effretikon,47.4258149579094,8.68668184918644
144,8503306,Dietlikon,47.4201990480087,8.61927227025673
145,8503307,Bassersdorf,47.4385700854802,8.62621624740394
146,8503308,Kloten,47.4486067255649,8.58380678283476
147,8503309,Kloten Balsberg,47.4422884829467,8.57071832914331
148,8503310,Glattbrugg,47.4308286569336,8.55885158423844
149,8503311,Rümlang,47.4540677487502,8.53276450838398
150,8503312,Oberglatt,47.4702045216066,8.51062103662735
151,8503312,Oberglatt ZH,47.4702045216066,8.51062103662735
152,8503313,Niederglatt,47.4874715144109,8.50331773336644
153,8503313,Niederglatt ZH,47.4874715144109,8.50331773336644
154,8503314,Niederhasli,47.4783287292926,8.48871112684463
155,8503315,Dielsdorf,47.4824207169514,8.45944401488394
156,8503316,Steinmaur,47.489984590852,8.44685861775167
157,8503340,Opfikon,47.4299535729635,8.56179805837077
158,8503350,"Kindhausen ZH, Geeren",47.4082845286062,8.68363656037286
159,8503351,"Bisikon, Dorf",47.4125217864622,8.6954134737493
160,8503370,"Effretikon, Eselriet",47.424319871583,8.70025539313138
161,8503371,"Illnau, Löwen",47.4163332034833,8.71742219821329
162,8503372,"Effretikon, Wattspitz",47.4270972948706,8.69468583836906
163,8503374,"Grafstal, Unterdorf",47.4451803881751,8.70125252309689
164,8503376,Ottikon b. Kemptthal,47.4353132339136,8.7169371079598
165,8503377,"Lindau, Dorf",47.4414743464957,8.67149133772987
166,8503378,"Tagelswangen, Dorf",47.4304032707099,8.67192252906631
167,8503380,"Winterberg ZH, Dorf",47.4564062782486,8.69305988770458
168,8503381,"Grafstal, Thalegg",47.4426469420161,8.70411814885363
169,8503382,"Illnau, Weisslingerstrasse",47.4079379945917,8.72705213806039
170,8503446,Zürich Landesmuseum (See),47.3790460655592,8.54157698132242
171,8503447,Zürich Storchen,47.371028196226,8.54196325689465
172,8503499,Zürich Central (Polybahn),47.3765398519527,8.54403836520125
173,8503500,Zürich Polyterrasse,47.3768561767436,8.54640093439881
174,8503508,Dietikon,47.4057857849267,8.40498814235303
175,8503508,Dietikon,47.4057857849266,8.40498814235303
176,8503509,Schlieren,47.3991766141354,8.4472448933239
177,8503512,Glanzenberg,47.3988786651024,8.42043916524204
178,8503525,Otelfingen Golfpark,47.4558231741326,8.40211353344345
179,8503526,Regensdorf-Watt,47.4365649581788,8.47208331093326
180,8503527,Buchs-Dällikon,47.4534056526775,8.43560272724009
181,8503528,Otelfingen,47.4549363575613,8.38753387638016
182,8503551,"Birmensdorf ZH, Landikon Bach",47.3522927781054,8.46169878624739
183,8503565,"Uster, Buchholz",47.3584757756574,8.72887571808741
184,8503567,"Uster, Spital",47.3538507670231,8.72349480953479
185,8503578,"Birmensdorf ZH, Sternen/WSL",47.360094432909,8.45627296193055
186,8503579,"Birmensdorf ZH, Obere Risi",47.3594554951892,8.45079323869666
187,8503580,"Uitikon, Schlössli",47.3681078802743,8.44785574771718
188,8503598,"Arni AG, Dorf",47.3183951391194,8.4197115298618
189,8503610,"Zürich, Triemli",47.3681504693771,8.49537662625372
190,8503633,"Uster, See",47.3433882323404,8.69075121742407
191,8503651,Zürich Bürkliplatz (See),47.3656619912465,8.5410020595405
192,8503653,Zürichhorn (See),47.3526214202206,8.5531293158778
193,8503655,Zollikon (See),47.3386827632592,8.5675203267314
194,8503657,Küsnacht ZH (See),47.3189980349967,8.57830011014234
195,8503659,Erlenbach ZH (See),47.3030281073303,8.58930447237433
196,8503660,Herrliberg (See),47.2834824402845,8.60977707770227
197,8503661,Meilen (See),47.2675505483071,8.64032878051943
198,8503672,Horgen (See),47.2623506182085,8.59759592244791
199,8503673,Oberrieden (See),47.2786253671307,8.58192930389069
200,8503674,Thalwil (See),47.2966923981501,8.56805033274911
201,8503675,Rüschlikon (See),47.3097711482299,8.55838446029063
202,8503677,Kilchberg ZH (See),47.3225543717011,8.55178184295144
203,8503681,Zürich Wollishofen (See),47.3454699490061,8.53665421356476
204,8503682,Küsnacht ZH Heslibach,47.3082301316054,8.58408526057287
205,8503689,"Stallikon, Wolfenhof",47.294432072012,8.48573770325378
206,8503690,"Stallikon, Dorf",47.3271395004643,8.48995080193689
207,8503691,"Stallikon, Bleiki",47.3337637910029,8.48881892467874
208,8503692,"Wettswil a.A., Dorf",47.3377148333975,8.47434706544956
209,8503693,"Wettswil a.A., Heidenchilen",47.3456282048101,8.46669341922779
210,8503694,"Stallikon, Gamlikon",47.3114582967247,8.49334643371133
211,8503695,"Hausen am Albis, Türlersee",47.2675139737948,8.51260631340553
212,8503696,"Stallikon, Sellenbüren",47.3432969270986,8.48207257689406
213,8503697,"Aeugstertal, Kloster",47.2843051124036,8.48686059735908
214,8503698,"Birmensdorf ZH, Untere Risi",47.3597049860768,8.44704726396136
215,8503699,"Uitikon, Dorf",47.37053540425,8.4541439547069
216,8503700,"Bassersdorf, Bahnhof",47.4387159099396,8.62613539902836
217,8503709,"Waldegg, Post",47.3683329937139,8.46200421344404
218,8503772,"Bülach, Mettmenriet",47.5124755183395,8.54346344341933
219,8503781,"Bachenbülach, alte Post",47.5052547110926,8.54596974306238
220,8503782,"Höri, Gemeindehaus",47.5080642692887,8.51018984529092
221,8503785,"Uster, Schlyffi",47.3457255927614,8.69737180106896
222,8503788,"Winkel, Zentrum",47.4923761509632,8.55233879842767
223,8503791,"Thalwil, Ebnet",47.2883695343036,8.55718970096259
224,8503855,"Horgen, Bahnhof",47.2616129548689,8.59567352773963
225,8503855,Bahnhof,47.2616129548689,8.59567352773963
226,8503857,"Winkel, Bühlhof",47.4830763767425,8.56076499579388
227,8503860,"Riedt b. Neerach, Riedacher",47.5010309886109,8.47403265510007
228,8503862,"Langnau a.A.,Schwerzi-Wildpark",47.2877053547711,8.53314180080336
229,8503871,"Höri, Oberhöri",47.5037376085068,8.49864649388837
230,8503872,"Uster, Reithalle",47.3562972036718,8.72678264347512
231,8503879,"Widen, Imbismatt",47.3724396243058,8.35652403276804
232,8503885,"Niederhasli, Hofstetterstrasse",47.4822568007251,8.49379559135345
233,8503887,"Langnau am Albis,Oberrenggstr.",47.2826719433898,8.5298898994744
234,8503896,"Horgenberg, Moorschwand",47.2527053159758,8.58653766129886
235,8503898,"Horgen, Stotzweid/Feller",47.251071171652,8.59718269741716
236,8503988,"Freudwil, Im Dörfli",47.3747939482936,8.73427459294572
237,8503989,"Winkel, Oberrüti",47.4799012073586,8.56368452046768
238,8505296,"Uster, Sportanlage",47.3610132726362,8.72715095274166
239,8505332,Zürich Tiefenbrunnen (See),47.3498644146043,8.56058533273703
240,8505333,Zürich Bellevue (See),47.3654429508751,8.54485583210991
241,8505363,"Dietlikon, Mäenriet",47.4124306008581,8.61849073595944
242,8505448,"Meilen, Friedhof",47.2718417823056,8.64133489363778
243,8506517,"Zürich, Hertersteg",47.3676819873548,8.5229908380914
244,8506549,"Adliswil, Dietlimoos",47.3224752092768,8.53225246867196
245,8506636,"Adliswil, Sunnau",47.3260617569731,8.52954853966638
246,8506638,"Zollikerberg, Station/Q'treff",47.3463525233964,8.60453091644228
247,8506889,"Embrach, Gemeindehaus",47.5025299635074,8.5946943640798
248,8506895,"Lufingen, Dorf",47.4886612950571,8.59365231835008
249,8506897,"Embrach, Post",47.5052365061215,8.59376011618419
250,8506898,"Oberembrach, Dorf",47.4869919523461,8.61956871430053
251,8506960,"Brütten, Zentrum",47.472038346399,8.67648597071027
252,8507183,"Zürich, Kantonsschule Enge",47.3642382125742,8.52750936397115
253,8509649,"Zürich, Leutschenpark",47.41655203245,8.55508764319746
254,8510010,"Zürich, Klinik Hirslanden",47.3517754669262,8.5766202605608
255,8510050,"Unterlunkhofen, Mühlegg",47.3202951512883,8.38272788960945
256,8510277,"Brüttisellen, Gemeindehaus",47.4200592504018,8.62947713188575
257,8517376,Dietikon Schöneggstrasse,47.4019614440302,8.40099063933815
258,8517377,Bibenlos-Sonnenhof,47.3537899089443,8.35028074154254
259,8517377,Bibenlos-Sonnenhof,47.3537899089443,8.3502717583897
260,8530473,"Zürich, Rigiblick",47.3873303219428,8.55341677676876
261,8530643,Horgen Autoquai,47.2592291956261,8.60463871427639
262,8530644,Meilen Autoquai,47.2679772490834,8.63847825103388
263,8530645,Maur (See),47.3402837655282,8.67901921981184
264,8530646,Uster (See),47.3432238827915,8.69011341357226
265,8530647,Fällanden (See),47.3657593422308,8.65270756513631
266,8530648,Greifensee (See),47.364536357443,8.67492290211568
267,8530696,Mönchaltorf (See),47.3259825998046,8.69992301647621
268,8530811,"Zürich, Balgrist",47.3545749727743,8.57502125935484
269,8530812,"Zürich, Hegibachplatz",47.361688700906,8.5606212653484
270,8530813,"Zürich, Kreuzplatz",47.3648770923725,8.5540815300791
271,8530822,Zürich Limmatquai,47.3730175688688,8.54263699335783
272,8557033,"Oberhasli, Industrie",47.4592670391304,8.49001368400678
273,8557034,"Niederhasli, Nassenwil",47.4656136067714,8.47144550708144
274,8557097,"Affoltern a.A., Lindenmoos",47.270805578687,8.44411875613473
275,8557101,"Schlieren, Kampstrasse",47.3934605633042,8.44834083797068
276,8570706,"Jonen, Weingasse",47.2934267746297,8.39801721574729
277,8572560,"Berikon-Widen, Bahnhof",47.3617982289998,8.36675584385558
278,8572561,"Bellikon, Rehaklinik",47.3885345327705,8.34403745031704
279,8572568,"Bremgarten AG, Badenerstrasse",47.3563884864263,8.34852004358542
280,8572595,"Birmensdorf ZH, Altenberg",47.3471255247055,8.42056492938183
281,8572596,"Oberwil-Lieli, Englisächer",47.3414768763322,8.40106250456088
282,8572597,"Oberwil-Lieli, im Moos",47.3411177284676,8.39402869588525
283,8572598,"Berikon, Mattenhof",47.3441247555157,8.38006887636809
284,8572599,"Berikon, Kreisschule",47.3562850326259,8.36628871990778
285,8572600,"Zufikon, Emaus",47.34464822855,8.35197855742976
286,8572601,"Zufikon, Algier",47.3417386266265,8.35462858751828
287,8572602,"Oberlunkhofen, Haldenmatten",47.3133646488037,8.3889172819179
288,8572603,"Jonen, Käppeli",47.2994704564101,8.39385801598124
289,8572605,"Ottenbach, Hinterdorf",47.2839029187437,8.40225726388893
290,8572646,"Unterlunkhofen, Gemeindehaus",47.3206300822469,8.38015870789651
291,8572647,"Rottenschwil, Seematten",47.3163245352383,8.36442022411655
292,8572747,"Bremgarten AG, Bahnhof",47.3516902622456,8.34617544069354
293,8573158,"Langnau am Albis, Hinteralbis",47.2747430445065,8.51780755890131
294,8573159,"Langnau am Albis, Mittelalbis",47.2757913606347,8.52776987540358
295,8573160,"Langnau am Albis, Dorf",47.2886132678201,8.53998696326931
296,8573161,"Langnau-Gattikon, Bahnhof",47.2872178782476,8.54369700539324
297,8573162,"Gattikon, Gattikerhof",47.2833057164563,8.54561041694868
298,8573163,"Gattikon, Gattikerhöhe",47.2854629255643,8.5550966263503
299,8573164,"Thalwil, Feldstrasse",47.2903376503655,8.55967803429995
300,8573165,"Thalwil, Schützenhaus",47.2877175416266,8.56221128340152
301,8573166,"Thalwil, Mühlebachplatz",47.2912698903072,8.56489724610141
302,8573167,"Thalwil, Zentrum",47.2949194820454,8.56446605476497
303,8573168,"Thalwil, Bahnhof",47.2959064736034,8.56512182492247
304,8573169,"Hausen am Albis, Grindlen",47.2439181481278,8.52569476709697
305,8573171,"Rifferswil, Unterrifferswil",47.2482356896554,8.49449627727516
306,8573176,"Hausen am Albis, Vollenweid",47.2596193835131,8.51053120509893
307,8573178,"Affoltern a.A., Bahnhof",47.2758157398324,8.44660708947208
308,8573178,"Affoltern a. A., Bahnhof",47.2758157398324,8.44660708947208
309,8573178,Bahnhof,47.2758157398324,8.44660708947208
310,8573193,"Zwillikon, Fehrenbach",47.2865658713747,8.44076804012449
311,8573195,"Obfelden, Hölibachstrasse",47.2686904412726,8.43281794985893
312,8573205,"Zürich Flughafen, Bahnhof",47.4501618688915,8.56374740253758
313,8573205,Bahnhof,47.4501618688915,8.56374740253758
314,8573206,"Bachenbülach, Schmiede",47.5008610616303,8.54499057940255
315,8573207,"Winkel, Scheidweg",47.4969465199914,8.54513430984803
316,8573209,"Winkel, Oberdorf",47.4912228741504,8.55563561552085
317,8573211,"Kloten, Zum Wilden Mann",47.453545361717,8.58019555539209
318,8573213,"Zürich Flughafen, Werft",47.4447794192125,8.57069137968479
319,8573213,Werft,47.4447794192125,8.57069137968479
320,8573214,"Kloten, Balsberg Hardacher",47.4398278081528,8.57203885261115
321,8573225,"Embrach, Oberdorf",47.5000174874054,8.59895237852712
322,8573226,"Embrach, Zürcherstrasse",47.4993802460905,8.59495487551223
323,8573228,"Lufingen, Unterdorf",47.4908161862869,8.59676048923356
324,8573229,"Lufingen, Hintermarchlen",47.4816679122851,8.5899332930733
325,8573230,"Lufingen, Augwil",47.4766954879643,8.59214314867255
326,8573232,"Kloten, Freienberg",47.4632147550056,8.58378881652907
327,8573233,"Kloten, Kaserne Ost",47.4573963256352,8.58021352169778
328,8573234,"Kloten, Hohrainli",47.4600201647324,8.58177659029236
329,8573236,"Oberglatt ZH, Mösli Hofstetten",47.4792880072242,8.5044945263888
330,8573237,"Oberglatt ZH, Bahnhof",47.4704474159839,8.51071086815578
331,8573238,"Oberglatt ZH, Rietli",47.4745764486483,8.51642415336357
332,8573239,"Oberglatt ZH, Zentrum",47.4763433326233,8.52079894879784
333,8573240,"Rümlang, Riedmatt",47.462352356228,8.52758122919389
334,8573241,"Rümlang, Bahnhof",47.4539523381081,8.53263874424419
335,8573242,"Rümlang, Rümelbach",47.4498459841248,8.54026544100742
336,8573244,"Glattbrugg, Unterriet",47.4376343689152,8.56182500782929
337,8573260,"Höri, Fuhrstrasse",47.509538772054,8.51530125925827
338,8573261,"Niederglatt ZH, Nöschikon",47.4953866910793,8.49499933383434
339,8573262,"Niederglatt ZH,altes Schulhaus",47.4931834296632,8.4983141172332
340,8573263,"Niederglatt ZH, Zentrum",47.4908161862869,8.50320095237949
341,8573264,"Niederhasli, Dorf",47.4806358238393,8.48509091624912
342,8573265,"Dielsdorf, Erlen",47.4834588411749,8.47121194510754
343,8573273,"Steinmaur, Obersteinmaur",47.4988279640281,8.45474582594734
344,8573274,"Steinmaur, Gemeindehaus",47.4935536811565,8.44851151787468
345,8573275,"Steinmaur, Bahnhof",47.4895111218752,8.44810727599677
346,8573276,"Dielsdorf, Wehntalerstrasse",47.4831674399551,8.45329055518686
347,8573277,"Dielsdorf, Bahnhof",47.4829306752739,8.45892299201908
348,8573503,"Wermatswil, Ledi",47.3633985302147,8.73678089258876
349,8573504,"Uster, Bahnhof",47.3508747247717,8.71760186127014
350,8573552,"Horgen, Altes Gemeindehaus",47.2605094888683,8.59603285385333
351,8573553,"Horgen, Stocker",47.2614605438068,8.5890439609419
352,8573554,"Horgen Oberdorf, Bahnhof",47.2587231664274,8.59019380450573
353,8573555,"Horgen, Bergli",47.257668415323,8.59315824494374
354,8573556,"Horgen, Ebnetstrasse",47.2527479981742,8.59672455662219
355,8573710,"Zürich Wiedikon, Bahnhof",47.3714297270242,8.52418559741944
356,8573711,"Zürich, Sädlenweg",47.3677549978138,8.48748043490521
357,8573712,"Wettswil a.A., Bäumlisächer",47.3422438618967,8.47010701730792
358,8573713,"Wettswil a.A., Grund",47.3318703515814,8.4742302844626
359,8573714,"Ringlikon, Langwis",47.3596197941991,8.46512136748036
360,8573715,"Stallikon, Aumüli",47.3020899828974,8.48590838315778
361,8573716,"Stallikon, Tägerst",47.2987759555289,8.48741755283531
362,8573717,"Aeugstertal, Landhus",47.2799051912787,8.50064973697224
363,8573718,"Birmensdorf ZH, Bahnhof",47.3569422650859,8.438800729652
364,8573718,Bahnhof,47.3569422650859,8.438800729652
365,8573719,"Birmensdorf ZH, Aescherstrasse",47.3508929832113,8.43832462255135
366,8573720,"Arni AG, Stockacker",47.3200332946963,8.42388869593354
367,8573721,"Oberlunkhofen, Waldegg",47.3134255534873,8.39881671635027
368,8573722,"Oberlunkhofen, Oberdorf",47.3123840737352,8.39276207133446
369,8573723,"Oberlunkhofen, Dorfplatz",47.311427843258,8.39044441790111
370,8573724,"Stallikon, Aegerten",47.3201977164289,8.49060657209438
371,8573725,"Islisberg, Dorf",47.323632186752,8.43934870197539
372,8573726,"Bonstetten-Wettswil, Bahnhof",47.3262992277667,8.46849903294912
373,8573726,Bahnhof,47.3262992277667,8.46849903294912
374,8573729,"Bonstetten, Isenbach",47.3151613074637,8.47171500166672
375,8573730,"Bonstetten, Lärchenhof",47.3242411120878,8.47242467074127
376,8573731,"Stallikon, Diebis",47.3493957701894,8.47589216773846
377,8573732,"Aeugst am Albis, Müliberg",47.2812337378832,8.47853321467414
378,8573733,"Aeugst am Albis, Höchweg",47.2708665324026,8.48064425559211
379,8573734,"Affoltern a.A., Lilienberg",47.2785766113129,8.46595680069471
380,8574610,"Uitikon, Wängi",47.3756760322801,8.44657115686071
381,8574615,"Uitikon, Gläseren",47.3734738364182,8.44861931570879
382,8574658,"Uitikon, Roracher",47.3721171893235,8.45140409308995
383,8574684,"Uitikon, Halde",47.3692577739796,8.45872536265654
384,8574739,"Waldegg, Katholische Kirche",47.3649318531381,8.46234557325205
385,8574780,"Ringlikon, Dorf",47.3583662406661,8.46950514606748
386,8574898,"Ringlikon, Gättern",47.3619746904504,8.4653189968429
387,8575014,"Uitikon Waldegg, Bahnhof",47.3662217569523,8.46503153595194
388,8575909,"Effretikon, Vogelbuckstrasse",47.4346326723032,8.68333113317621
389,8575918,"Effretikon, Bahnhof",47.4251403510439,8.68615184316874
390,8575918,Bahnhof,47.4251403510439,8.68615184316874
391,8575919,"Effretikon, Zentrum",47.4276807174607,8.68641235460117
392,8575920,"Effretikon, Müselacher",47.4290480888166,8.69659924992451
393,8575921,"Effretikon, Lindenwiese",47.4260215925169,8.69948284198693
394,8575922,"Illnau, Gemeindehaus",47.4148560841713,8.71921882878178
395,8575923,"Illnau, Kirche",47.4146007753991,8.71739524875477
396,8575924,"Illnau, Steinacher",47.4118409301395,8.71374808870073
397,8575925,"Illnau, Wingert",47.4105582215479,8.71249044730279
398,8575926,"Illnau, Chrummenacher",47.405420994912,8.71917391301757
399,8575927,"Illnau, Bahnhof",47.4085337885052,8.72297378666993
400,8575937,"Tagelswangen, Oberwis",47.4313695001675,8.67825565182023
401,8575938,"Tagelswangen, Buckstrasse",47.4337454984171,8.67299152425456
402,8575939,"Lindau, Rigacher",47.4402045115079,8.67751005013431
403,8575940,"Effretikon, Langhag",47.4371665043924,8.68627760730853
404,8575941,"Lindau, Eschikon",47.4480782093562,8.68228908744649
405,8575942,"Winterberg ZH, Wältiwis",47.4546690948399,8.69626687326933
406,8575943,"Grafstal, Oberdorf",47.443473211245,8.69783892501676
407,8575944,"Kemptthal, Bahnhof",47.4530229694946,8.70554647015558
408,8575946,"Effretikon, Girhalde",47.4341040156925,8.69127224028894
409,8575957,"Uster, Talacker",47.3433151881596,8.71608370843977
410,8575958,"Uster, im Hölzli",47.3394497894155,8.71435894309402
411,8575976,"Uster, Florastrasse",47.3465472964466,8.7263963679029
412,8575977,"Uster, Oberuster",47.3452386512083,8.73097777585254
413,8576080,"Meilen, Bahnhof",47.2694401970586,8.64488323901054
414,8576082,"Meilen, Beugen",47.2672701430669,8.65071330520529
415,8576095,"Uster, Stadtpark",47.3481480602265,8.71569743286754
416,8576097,"Uster, Wil",47.3450986546804,8.70780124151903
417,8576099,"Uster, Turicum",47.3481054549753,8.69504516448276
418,8576127,"Schwerzenbach ZH, Bahnhof",47.3839851475112,8.65955272760226
419,8576127,Bahnhof,47.3839851475112,8.65955272760226
420,8576128,"Volketswil, Hölzliwisen",47.3803964516586,8.67824666866739
421,8576129,"Volketswil, Wallberg",47.3894650404757,8.68706812475867
422,8576130,"Volketswil, Huzlenstrasse",47.3931747444858,8.68368147613707
423,8576131,"Volketswil, Eichstrasse",47.3947862558512,8.68225315483512
424,8576132,"Volketswil, Chapf",47.3932173133443,8.67936956277269
425,8576133,"Kindhausen ZH, Bodenacher",47.4050683621631,8.6800702486944
426,8576135,"Effretikon, Moosburg",47.4209770453007,8.69181122945948
427,8576139,"Volketswil, In der Höh",47.3852502566206,8.66838316684638
428,8576140,"Volketswil, In der Au",47.3895623475222,8.68875695749305
429,8576152,"Kloten, Kirchgasse",47.4527799945998,8.58485781171732
430,8576153,"Kloten, Rankstrasse",47.4511884812805,8.59205331714412
431,8576154,"Kloten, Oberfeld",47.4490866379814,8.59773965289339
432,8576155,"Kloten, Grubenstrasse",47.4476833374582,8.60324632558581
433,8576158,"Bassersdorf, Talgüetli",47.4451014096818,8.62048499589046
434,8576159,"Bassersdorf, Schmitte",47.4429446434544,8.6287674628112
435,8576160,"Bassersdorf, Löwen",47.4435825694351,8.62812965895938
436,8576161,"Bassersdorf, Gemeindehaus",47.4435521921829,8.629063906855
437,8576163,"Bassersdorf, Rietli",47.4446882894765,8.63618754705906
438,8576164,"Zufikon, Bachhalde",47.3502478478485,8.35592216152759
439,8576167,"Nürensdorf, Chrüzstrass",47.4542439013472,8.63462447846447
440,8576168,Birchwil (Nürensdorf),47.4580219287894,8.63903520651011
441,8576169,"Nürensdorf, Oberwil",47.4641014319557,8.63995148810004
442,8576170,"Nürensdorf, Berg",47.451018393039,8.65137805851563
443,8576171,"Breite b. Nürensdorf, Sternen",47.4608279406854,8.65991205371596
444,8576172,"Breite b. N'dorf,Grünenwaldstr",47.461927224864,8.66128647610085
445,8576173,"Breite b. N'dorf, W'thurerstr.",47.4615992640343,8.661106813044
446,8576174,"Brütten, Hofacher",47.470969635094,8.67059302244562
447,8576176,"Brütten, Harossen",47.4714675601105,8.68249569996186
448,8576182,"Zürich Tiefenbrunnen, Bahnhof",47.3504182617297,8.56098957461495
449,8576183,"Zollikon, Seestrasse",47.3427977889857,8.56732269736887
450,8576184,"Zollikon, Bahnhof",47.337763534695,8.56977509809486
451,8576185,"Zollikon, Gemeindehaus",47.3407524908453,8.57597347355614
452,8576186,"Zollikon, Höhestrasse",47.3398515605741,8.58152506201278
453,8576187,"Zollikon, Allmend",47.3429743139797,8.5830971137602
454,8576188,"Zollikon, Schützenstrasse",47.3448977894484,8.58588189114136
455,8576189,"Zollikon, Rebwiesstrasse",47.3457134192773,8.58912480931748
456,8576193,"Zürich, Bellevue",47.3670918157679,8.54511634354234
457,8576194,"Zürich, Elektrowatt",47.3573865009083,8.55041640371939
458,8576195,"Zürich, Opernhaus",47.3654125285294,8.54764959264391
459,8576196,"Zürich, Kreuzstrasse",47.3631855651727,8.54979656617326
460,8576197,"Zürich, Feldeggstrasse",47.3605143020546,8.55206032068955
461,8576198,"Zürich, Höschgasse",47.3579950370599,8.5542072942189
462,8576199,"Zürich, Fröhlichstrasse",47.3551713700479,8.55690224007163
463,8576200,"Zürich, Wildbachstrasse",47.3531874101771,8.55886955054413
464,8576201,"Zollikon, Bahnübergang",47.3459203681249,8.56615488749935
465,8576202,"Zollikon, Felbenstrasse",47.343205621699,8.56963136764938
466,8576203,"Zollikon, Dufourplatz",47.3404359495289,8.57261377439307
467,8576204,"Zollikon, Beugi",47.3364790229425,8.57508414142474
468,8576205,"Zollikon, Goldhaldenplatz",47.3350361928599,8.57751857584505
469,8576206,"Küsnacht ZH, Bühlstrasse",47.3317546730177,8.57965656622155
470,8576207,"Küsnacht ZH, Goldbacherstrasse",47.3292279464429,8.58046504997737
471,8576208,"Küsnacht ZH, Boglerenstrasse",47.3262870498033,8.58230659631007
472,8576209,"Küsnacht ZH, Schiedhaldenstr.",47.3229745395057,8.58257609089534
473,8576210,"Küsnacht ZH, Schiedhaldensteig",47.3213669228819,8.58682512218982
474,8576211,"Küsnacht ZH, Schübel",47.3219454269227,8.58985244469772
475,8576214,"Itschnach, Dorf",47.3277910070514,8.6023120776902
476,8576215,"Itschnach, Fallacher",47.3290270208281,8.60608500188402
477,8576215,Fallacher,47.3290270208281,8.60608500188402
478,8576216,"Küsnacht ZH, Oberwacht",47.3193999617596,8.58450746875647
479,8576217,"Küsnacht ZH, Ob. Heslibachstr.",47.3168970044268,8.58554951448619
480,8576218,"Küsnacht ZH, Bergstrasse",47.3144182899337,8.58970871425224
481,8576219,"Küsnacht ZH, Himmelistrasse",47.3138397034745,8.59222399704813
482,8576220,"Küsnacht ZH, Hesligenstrasse",47.3157703304347,8.59320316070795
483,8576221,"Küsnacht ZH, Ränkestrasse",47.3145461871381,8.59527826901456
484,8576222,"Küsnacht ZH, Allmend",47.3158129617798,8.59723659633421
485,8576223,"Küsnacht ZH, Bahnhof",47.3191441905369,8.5802404711563
486,8576224,"Zumikon, Gössikon",47.3321321495007,8.61464594654287
487,8576225,"Zumikon, Waltikon",47.3361076653809,8.6181853087628
488,8576226,"Zumikon, Dorfzentrum",47.3329784176173,8.62291943031076
489,8576235,"Otelfingen, Bahnhof",47.4551185813653,8.38827947806608
490,8576236,"Otelfingen, Post",47.460481752511,8.39013899070447
491,8576237,"Otelfingen, Schule",47.4626013601446,8.39012102439878
492,8576238,"Boppelsen, Dorf",47.4700648568313,8.40191590408092
493,8576239,"Boppelsen, Hand",47.4687653493912,8.40724291371649
494,8576240,"Zürich, Meierhofplatz",47.4020100860391,8.49937412926861
495,8576241,"Zürich, Heizenholz",47.4122968616864,8.48390514007392
496,8576242,"Zürich, Grünwald",47.4173847899242,8.48316852154084
497,8576243,"Regensdorf, Lettenhau",47.4257906479022,8.47195754679347
498,8576244,"Regensdorf, Obstgarten",47.4290784744433,8.46925361778789
499,8576245,"Regensdorf, Zentrum",47.4314606529742,8.46628917734988
500,8576246,"Regensdorf, Ostring",47.4319832593521,8.47107719781491
501,8576248,"Watt, Geerenweg",47.4390014816685,8.47723964066482
502,8576249,"Watt, Dorf",47.4422216513247,8.48074307027338
503,8576250,"Watt, Schulhaus",47.4439106426415,8.47800320865643
504,8576251,"Watt, Laubisser",47.4474767878999,8.47777862983537
505,8576252,"Watt, Haldensteig",47.4490137401749,8.47108618096775
506,8576253,"Adlikon b. R., Dorf",47.4481632583,8.46646884040673
507,8576255,"Adlikon b. R., Sonnhalde",47.4520024673923,8.46220184280657
508,8576256,"Adlikon b. R., Sonnhalde West",47.4533023892358,8.45891400886623
509,8576257,"Buchs ZH, Petermoos",47.457189814222,8.4434360365187
510,8576258,"Buchs ZH, Linde",47.4584592391954,8.44024701725963
511,8576259,"Buchs ZH, Post",47.456661384266,8.43758800401827
512,8576260,"Buchs-Dällikon, Bahnhof",47.4533388351796,8.43732749258584
513,8576262,"Zürich, Zehntenhausplatz",47.419220456965,8.5064618368613
514,8576263,"Zürich, Hungerbergstrasse",47.4210925282938,8.5015300859508
515,8576264,"Regensdorf, Chrüzächer",47.4277536448297,8.47324213764993
516,8576265,"Regensdorf, Gemeindehaus",47.4342194698883,8.46964887651296
517,8576269,"Regensdorf, Dreispitz",47.4383574240857,8.4647261087553
518,8576270,"Regensdorf, Sportanlage Wisa.",47.4375067699125,8.4612136959939
519,8576271,"Dällikon, Seitenacker",47.4387766700117,8.44470266106948
520,8576272,"Dällikon, Dorf",47.4397366698391,8.43930378621118
521,8576273,"Dänikon, Gemeindehaus",47.4458790389137,8.40683867183858
522,8576274,Hüttikon,47.4461220456912,8.3864199654277
523,8576275,"Regensdorf, Holenbach",47.4312175784721,8.46094420140863
524,8576276,"Dällikon, Industrie",47.444736892022,8.43878276334631
525,8576277,"Buchs ZH, Industrie",47.4494814993441,8.43832462255135
526,8576278,"Regensdorf, Furtbächli",47.4444938788455,8.46669341922779
527,8576279,"Regensdorf, Hardhölzli",47.4416080115536,8.46590290177766
528,8576280,"Regensdorf, Althard",47.4382176747013,8.47016989937782
529,8576281,"Adlikon b. R., Ziegelhütte",47.452634209124,8.46607358168166
530,8576282,"Dielsdorf, Altmoos",47.475985103217,8.45486260693429
531,8576283,"Dielsdorf, Dorfzentrum",47.4813947143755,8.45366784760625
532,8576285,"Dielsdorf, Bezirksgebäude",47.4819775348651,8.45268868394642
533,8576286,"Dielsdorf, Spitalstrasse",47.4814857805033,8.45065849140403
534,8576287,"Regensberg, Hirsmühle",47.4822568007251,8.44464876215243
535,8576288,"Regensberg, Höfli",47.480945452502,8.43677053710961
536,8576289,"Regensberg, Dorf",47.4828699662093,8.43626748055043
537,8576480,"Zufikon, Schulanlage",47.34747854516,8.35837456225358
538,8576496,"Zufikon, Volg",47.3453725605832,8.35708997139711
539,8576498,"Zufikon, Haldenstrasse",47.3433151881596,8.35697319041016
540,8576699,"Wettswil a.A., Schürli",47.3329175354717,8.47788642766948
541,8576743,"Wettswil a.A., Beerimoos",47.3295689093734,8.48007831696304
542,8576788,"Uster, Burgreben",47.3438873648707,8.71708982155812
543,8577867,"Horgen, Waidli",47.2541564914236,8.60552804640779
544,8577912,"Horgen, untere Mühle",47.2591865186515,8.59809897900709
545,8578679,"Würenlos, Bettlen",47.4461038202218,8.37079826263468
546,8579186,"Oberrieden, Bahnhof",47.2794237372554,8.57915350966237
547,8579188,"Oberrieden, Seehalde",47.2733168136371,8.58318694528863
548,8579189,"Horgen, Scheller",47.269159801829,8.58692393687108
549,8579190,"Horgen, Plattenhof",47.2653865128411,8.5882175108804
550,8579192,"Horgen, Spital",47.263100463796,8.58880141581516
551,8579434,"Wettswil a.A., Dettenbühl",47.3377148333975,8.47454469481209
552,8579440,"Wettswil a.A., Chilenholzstr.",47.3340742842361,8.47870389457814
553,8579442,"Wettswil a.A., Oberhusen",47.3376843950638,8.47785049505811
554,8579443,"Wettswil a.A., Eggächer",47.3400524450069,8.47641319060332
555,8579453,"Wettswil a.A., Heissächerstr.",47.3416655801633,8.4743560486024
556,8579472,"Wettswil a.A., Strumbergächer",47.3430108363185,8.47228992344864
557,8579495,"Wettswil a.A., Rehweid",47.3443134498822,8.47050227603299
558,8579497,"Wettswil a.A., Langächer",47.3436073642763,8.46896615689693
559,8579843,"Kloten, Sporthalle Ruebisbach",47.461957591504,8.57710535081429
560,8579869,"Fehraltorf, Schrännenbrunnen",47.3953396314059,8.73623292026537
561,8579967,"Kloten, Weinbergstrasse",47.4661540924378,8.58015063962788
562,8579968,"Kloten, Egetswil",47.4695547736295,8.58466916550763
563,8579969,"Kloten, Chanzler",47.4670893016991,8.58202811857195
564,8579991,"Bonstetten, Sunnenberg",47.3124449795489,8.47339485124826
565,8579994,"Wettswil a.A., Moosstrasse",47.335011840959,8.47475130732747
566,8580268,"Affoltern a.A., Bezirksspital",47.2811971728268,8.45738687288302
567,8580301,"Zürich Flughafen, OPC",47.4526524323306,8.56566081409302
568,8580317,"Berikon, Stalden",47.3476428814627,8.37650256468964
569,8580432,"Kloten, Bramen",47.4439106426415,8.57842587428213
570,8580433,"Kloten, Graswinkel",47.4509394233112,8.59648201149545
571,8580434,"Kloten, Lindenstrasse",47.4521118078505,8.58784021846101
572,8580435,"Kloten, Mühle",47.4501071966638,8.59192755300433
573,8580437,"Kloten, Säntisstrasse",47.4515651032864,8.59102923772008
574,8580438,"Kloten, Wohnheim",47.4536243275317,8.59325705962501
575,8580443,"Glattbrugg, Riethofstrasse",47.4363765938092,8.56892169857482
576,8580449,"Zürich Oerlikon, Bahnhof",47.411494419524,8.54479295004002
577,8580522,"Zürich, Escher-Wyss-Platz",47.3907969150758,8.5223979500038
578,8580536,"Opfikon, Schulstrasse",47.4308408107752,8.57371870219269
579,8580617,"Bülach, Kaffeestrasse",47.5117716850292,8.53621403907548
580,8580619,"Bachenbülach, Bramenländli",47.5035252106459,8.53896288384527
581,8580620,"Bachenbülach, Bramenstrasse",47.5047692430355,8.54121765520872
582,8580724,"Horgen, Baumgärtlihof",47.2589975202076,8.5996889970602
583,8580728,"Widen, Burkertsmatt",47.3657106667611,8.36523769102521
584,8580729,"Berikon, Kesslernmatt",47.3645789494295,8.3660821073924
585,8580847,"Bremgarten AG, Bibenlos",47.353838595413,8.34999328065158
586,8580872,"Uster, Ackerstrasse",47.353004833435,8.71270604297101
587,8580874,"Uster, Krämeracker",47.3517389506513,8.70592376257496
588,8580877,"Uster, Sonnenberg",47.3501869856148,8.70261796232894
589,8580879,"Uster, Stadthaus",47.3478985146944,8.71909306464199
590,8580912,"Zürich, Schaufelbergerstrasse",47.3689048992124,8.50184449630028
591,8581015,"Affoltern a.A., Friedhof",47.2826658493811,8.44649929163797
592,8581059,"Stallikon, Loomatt",47.3384209978144,8.48551312443272
593,8581346,"Oberwil-Lieli, Bündtenmättli",47.3395958883723,8.38288958636062
594,8581538,"Uster, Seeweg",47.3461394895498,8.69652738470176
595,8581539,"Uster, Apothekerstrasse",47.3461760096989,8.71506861216857
596,8581540,"Uster, Wildsbergstrasse",47.3512216340433,8.69964453873809
597,8581541,"Uster, Jungholz",47.3503756583109,8.69643755317334
598,8581542,"Uster, Burgstrasse",47.3430534456819,8.72004527884329
599,8581543,"Uster, Krone",47.3411238157399,8.72566873252266
600,8581544,"Uster, Bildungszentrum",47.3475150643826,8.70960685524037
601,8581545,"Uster, Jugendhaus",47.3500470022109,8.71243654838574
602,8581546,"Uster, Nossikon",47.3401254937021,8.72954945455059
603,8581548,"Uster, Poststrasse",47.3491157988131,8.7169999900297
604,8581666,"Bonstetten, Lätten",47.3189005977452,8.45578787167706
605,8582005,"Bülach, Einkaufszentrum Süd",47.5094720259104,8.53906169852653
606,8582104,"Zwillikon, Lochhof",47.2885523345462,8.42249630724296
607,8582462,"Bremgarten AG, Zelgli",47.3475576701104,8.34819665008309
608,8582529,"Bremgarten AG, Zufikerstrasse",47.3522623481765,8.35006514587432
609,8582662,"Oberglatt ZH, Bälen",47.4801258432404,8.52336813051078
610,8582720,"Niederglatt ZH, Sonnenbergstr.",47.4904884057168,8.50295840725274
611,8582721,"Hedingen, Hausacker",47.2948951116504,8.44918525433787
612,8582722,"Hedingen, Güpf",47.2997263228562,8.44823304013657
613,8582723,"Affoltern a.A., Blitzgbach",47.2855238623972,8.45310190897717
614,8582739,"Bülach, Cholplatz",47.5099028404341,8.54454142176043
615,8582751,"Riedt b. Neerach, Storchen",47.5003876907126,8.47402367194723
616,8582752,"Birmensdorf ZH, Weissenbrunnen",47.3560720388686,8.44596030246743
617,8582763,"Affoltern a.A., Weinberg",47.2797589272286,8.46131251067517
618,8582790,"Ottenbach, Engelwiese",47.2814957867147,8.40506000757577
619,8583047,"Aeugst am Albis, Grossacher",47.2661058358545,8.49120844333483
620,8583053,"Stallikon, Langfuren",47.3236260974632,8.49017538075794
621,8583071,"Jonen, Radmühle",47.3019681473342,8.39299563330837
622,8583206,"Islisberg, Räbacher",47.321634862383,8.43532424950197
623,8583214,"Birmensdorf ZH, Ristet",47.3657228356327,8.42941333493164
624,8583363,"Ottenbach, Geeren",47.2842441741668,8.4091922578833
625,8583613,"Waldegg, Leuen",47.3627413781756,8.45963266109363
626,8583692,"Steinmaur, Sünikon",47.4907554863357,8.43739037465573
627,8583731,"Birmensdorf ZH, Landikon Dorf",47.3527857405107,8.46109691500695
628,8583755,"Aesch ZH, Heligenmattstrasse",47.3345248005831,8.43633036262033
629,8583761,"Oberglatt ZH, Pistenende",47.482469284624,8.52716800416314
630,8583769,"Niederglatt ZH, Seeblerstrasse",47.4873440363146,8.49847581398437
631,8583774,"Winkel, Seebüel",47.4924186396252,8.54719145184895
632,8583775,"Winkel, Wisental",47.479275864575,8.55374915342393
633,8583805,"Bonstetten, Dorfstrasse",47.3171223363425,8.46372897878978
634,8583831,"Höri, Schulhaus",47.5086346579871,8.50634505587435
635,8583855,"Rifferswil, Hausmatte",47.2483881387852,8.49168455043548
636,8583870,"Birmensdorf ZH, Bahnhof Süd",47.3571735115972,8.43701308223635
637,8583870,"Birmensdorf ZH, Bahnhof Süd",47.3571735115972,8.43700409908351
638,8583870,Bahnhof Süd,47.3571735115972,8.43700409908351
639,8583890,"Affoltern a.A., Moosbach",47.2727438724658,8.43986074168741
640,8587010,"Uster, Pfannenstielstrasse",47.3470342259279,8.70164778182196
641,8587018,Kindhausen AG,47.3941781441443,8.37597255867193
642,8587020,"Dietikon, Bahnhof",47.4058344234044,8.40452101840523
643,8587020,Bahnhof,47.4058344234044,8.40452101840523
644,8587347,"Zürich, Rote Fabrik",47.342730831075,8.53601640971295
645,8587348,"Zürich, Bahnhofplatz/HB",47.3772394138519,8.53934017626465
646,8587349,"Zürich, Bahnhofquai/HB",47.3775618175159,8.54173867807358
647,8587420,"Kloten, Bahnhof",47.448965141581,8.58388763121034
648,8587651,"Wallisellen, Glatt (Bus)",47.4092086081654,8.59554776359983
649,8587651,Glatt (Bus),47.4092086081654,8.59554776359983
650,8587652,"Zürich, Altried",47.4056277095638,8.59100228826155
651,8587653,"Dübendorf, Bahnhof",47.3997299435837,8.62363808253816
652,8587654,"Glattbrugg, Glatthof",47.434511142518,8.56762812456551
653,8587655,"Wallisellen, Bahnhof",47.4127223942356,8.59253840739761
654,8587680,"Uster, Gschwaderstrasse",47.3547027727575,8.70865464103907
655,8587799,"Kloten Balsberg, Bahnhof",47.4416140872299,8.56860728822534
656,8587858,"Volketswil, Giessen",47.3888811944238,8.6963028058807
657,8587859,"Uster, Loren",47.3580254636833,8.71161908147707
658,8587860,"Uster, Strick",47.3564493415083,8.71275994188806
659,8587952,"Uster, Zentralstrasse",47.3471620441724,8.71792525477247
660,8587964,"Erlenbach ZH, Alterswohnheim",47.3072920994884,8.59476622930254
661,8587965,"Erlenbach ZH, Bahnhof",47.305818015385,8.5912448333883
662,8587966,"Erlenbach ZH, Bahnhofstrasse",47.3037895597272,8.59134364806957
663,8587967,"Erlenbach ZH, Im Bindschädler",47.2955835709855,8.60393802835468
664,8587968,"Erlenbach ZH, Chapf",47.3078768487363,8.60903147601634
665,8587969,"Erlenbach ZH, Erlenhöhe",47.3060007553159,8.60239292606578
666,8587970,"Erlenbach ZH, Föhrenstrasse",47.3070849992451,8.60785468299398
667,8587971,"Erlenbach ZH, Im Loo",47.3049164891466,8.59362536889155
668,8587972,"Erlenbach ZH, Im Streuli",47.2970518481196,8.60639941223351
669,8587973,"Erlenbach ZH, Im Vogelsang",47.305781467323,8.59663472509377
670,8587974,"Erlenbach ZH,Kirchgemeindehaus",47.3027905319376,8.59331994169491
671,8587975,"Erlenbach ZH, Pflugstein",47.2968934467393,8.60867214990265
672,8587976,"Erlenbach ZH, Rankstrasse",47.3076271128698,8.59732642786264
673,8587977,"Erlenbach ZH, Rebstrasse",47.2991232071098,8.6021863135504
674,8587978,"Erlenbach ZH, Sandfelsenstr.",47.3072555524456,8.60010222209095
675,8587979,"Erlenbach ZH, Schulhaus",47.3023580201484,8.59790134964455
676,8587980,"Erlenbach ZH, Trottgatter",47.3071824582843,8.61350508613188
677,8587981,"Meilen, Eichholz",47.2818858104788,8.62318892489604
678,8587982,"Meilen, Zentrum Feldmeilen",47.2786436505508,8.61599341946924
679,8587983,"Meilen, Schulhaus Feld",47.2765105422464,8.62295536292213
680,8587984,"Meilen, Schwabach",47.2753830074029,8.62573115715045
681,8587992,"Herrliberg, Alterssiedlung",47.287053353907,8.61506815472647
682,8587993,"Herrliberg, Aryanastrasse",47.2884365611326,8.61857158433502
683,8587994,"Herrliberg, Bergstrasse",47.294365052781,8.61434051934623
684,8587996,"Herrliberg, Forchstrasse",47.2870289798871,8.62129347964628
685,8587997,"Herrliberg, Freudacherstrasse",47.2954373502834,8.61329847361651
686,8587998,"Herrliberg, Gartenstrasse",47.2857676090264,8.61257982138911
687,8587999,"Herrliberg, Grundhofstrasse",47.286145414082,8.61770920166215
688,8588000,"Herrliberg, Grüt",47.2901853220158,8.60586042306296
689,8588001,"Herrliberg, Harzerstrasse",47.2867060230628,8.61802361201163
690,8588002,"Herrliberg, Holzwies",47.2934084963185,8.60832180694179
691,8588003,"Herrliberg, Humrigen",47.2843538629424,8.62004482140118
692,8588005,"Herrliberg, Pfarrgasse",47.2870960084148,8.60890571187655
693,8588006,"Herrliberg, Rietli",47.2867547713891,8.62554251094076
694,8588007,"Herrliberg, Schulhaus",47.2884000010546,8.61363983342452
695,8588008,"Herrliberg, Sportplatz",47.2927017301104,8.61179828709182
696,8588009,"Herrliberg, Tennisplätze",47.2907154227796,8.61576884064818
697,8588010,"Herrliberg, Vogtei",47.2896552159388,8.60971419563237
698,8588011,"Herrliberg-Feldmeilen, Bahnhof",47.2813434329008,8.61279541705733
699,8588014,"Meilen, Allmend",47.2710311070842,8.64820700556225
700,8588017,"Meilen, Bezibüel/Chilchbüel",47.2791677725733,8.66323582026766
701,8588019,"Meilen, Bundi",47.2811788902891,8.66701772761433
702,8588020,"Meilen, Charrhalten",47.2770285907408,8.66356819692283
703,8588023,"Meilen, Hallenbad",47.2723050197139,8.64535036295835
704,8588024,"Meilen, Halten",47.2713297783473,8.65738778776723
705,8588025,"Meilen, Hohenegg",47.2739994588492,8.66099003205705
706,8588027,"Meilen, Ormis",47.2707933879355,8.6530219754858
707,8588028,"Meilen, Parkresidenz",47.2700985104554,8.63858604886799
708,8588029,"Meilen, Plätzli",47.2741030738706,8.62529996581401
709,8588030,"Meilen, Rebbergstrasse",47.2784120600963,8.61917345557547
710,8588031,"Meilen, Roren",47.2828974212162,8.66991928598244
711,8588032,"Meilen, Tobel",47.2822636432584,8.61873328108618
712,8588033,"Meilen, Vorderer Pfannenstiel",47.2855238623972,8.67994448455461
713,8588034,"Meilen, Zur Au",47.2732680529278,8.66180749896571
714,8588050,"Uster, Bordacker",47.3519945640447,8.72933385888238
715,8588051,"Uster, Dammstrasse",47.3534491024058,8.71567946656186
716,8588052,"Uster, Gschwader",47.3582688760385,8.71277790819375
717,8588053,"Uster, Haberweid",47.3618773324817,8.71350554357399
718,8588054,"Uster, Meieracher",47.3600457522121,8.71459250506792
719,8588055,"Uster, Oberlandstrasse",47.3543558863687,8.7157513317846
720,8588056,"Uster, Talweg",47.3485132466833,8.73078014649001
721,8588057,"Uster, Himmelriich",47.356832726911,8.7294236904108
722,8588058,"Uster, Wageren",47.3519032736892,8.72710603697745
723,8588059,"Uster, Weidli",47.353996826126,8.73063641604453
724,8588078,"Zürich, Central",47.3768440104406,8.54393955051998
725,8588094,"Dänikon, Rotflue",47.4470029358486,8.39710991731021
726,8588095,"Gutenswil, Grossenacher",47.3823428932854,8.71710778786381
727,8588096,"Volketswil, Hofwisen",47.3810959623905,8.67298254110171
728,8588097,"Volketswil, Gries",47.3859801134497,8.67931566385564
729,8588098,"Gutenswil, Sternen",47.3853658179585,8.71876967113966
730,8588205,"Erlenbach ZH, Allmend",47.3063053204636,8.6053394001981
731,8588279,"Tagelswangen, Gerenhalde",47.4314059613092,8.66796994181563
732,8588311,"Effretikon, Brüttenerstrasse",47.4319589521938,8.68603506218179
733,8588312,"Effretikon, Kapelle Rikon",47.4329251530902,8.68904441838401
734,8588313,Baltenswil,47.4302331152577,8.64172116921
735,8588314,"Dietlikon, Bahnhof",47.4200167032303,8.61895785990725
736,8588315,"Bassersdorf, Grindel",47.4465230044196,8.60841163847022
737,8588316,"Bassersdorf, Dietlikonerstr.",47.4417659789114,8.62966577809544
738,8588317,"Bassersdorf, Bächli",47.4389224938986,8.63573838941693
739,8588318,"Brüttisellen, Ob. Wangenstr.",47.4258210354094,8.63484905728553
740,8588319,"Brüttisellen, Zentrum",47.4238458109543,8.63069884067232
741,8588469,"Nürensdorf, Lindauerstrasse",47.4442326384287,8.65186314876913
742,8588502,Kleinikon,47.4568193064184,8.68570268552662
743,8588553,"Zürich Flughafen, Fracht",47.4521604035367,8.57173342541451
744,8588735,"Grafstal, Engelacher",47.4422581049472,8.70039014042402
745,8588736,"Kloten, Ackerstrasse",47.4548330971254,8.58715749884499
746,8588737,"Kloten, Geissbergstrasse",47.4548695420083,8.59155026058495
747,8588738,"Kloten, Härdlen",47.455713841391,8.58992430992046
748,8588739,"Kloten, Lägernstrasse",47.4451257107693,8.57639568173974
749,8588740,"Kloten, Neubrunnenstrasse",47.4448766240902,8.57874926778446
750,8588744,"Wallisellen, Kaserne",47.4168559600617,8.58553154818051
751,8588745,"Wallisellen, Steinacker",47.4188071335453,8.58194727019637
752,8588984,"Horgen, Gehren",47.2518638598974,8.60162037492133
753,8588985,"Horgen, Heubach",47.2546869531959,8.59805406324288
754,8589106,"Volketswil, Zimikon",47.3851772703819,8.67231778779137
755,8589108,"Oberrieden, Tannenbach",47.2691476106984,8.58254914143681
756,8589109,"Horgen, Säntisstrasse",47.264417240101,8.586187318338
757,8589110,"Horgen, Widmerheim",47.2671969936295,8.58444458668657
758,8589111,"Horgen, Gumelenstrasse",47.2608813777694,8.59208026660265
759,8589128,"Volketswil, Chammwisen",47.3883520783529,8.67738428599451
760,8590200,"Bergdietikon, Baltenschwil",47.3927855419,8.39258240827762
761,8590201,"Bergdietikon, Bergli",47.3911253173387,8.3895730520754
762,8590202,"Bergdietikon, Bernold",47.388035822533,8.38812676446776
763,8590203,"Bergdietikon, Dünni",47.394500444223,8.393130380601
764,8590204,"Bergdietikon, Rietwies",47.3932112320809,8.39071391248639
765,8590205,"Bergdietikon, Vorbühl",47.3896414093652,8.38508147565417
766,8590217,"Dietikon, Bahnhofstrasse",47.4043022897811,8.40368558519088
767,8590218,"Dietikon, Gjuchstrasse",47.4079623128426,8.39322919528227
768,8590220,"Dietikon, Marmori-Weiher",47.3992799838144,8.39447785352737
769,8590222,"Dietikon, Oetwilerstrasse",47.406247848652,8.39722669829716
770,8590223,"Dietikon, Stadthaus",47.4025512253589,8.40069419529434
771,8590241,"Kindhausen AG, Eichholz",47.3941963875977,8.38051803401021
772,8590268,"Spreitenbach, ASP",47.4142117310803,8.3795209040447
773,8590269,"Spreitenbach, Breiti",47.429977881048,8.35891355142413
774,8590270,"Spreitenbach, Brüel",47.4180594961757,8.37195708935136
775,8590271,"Spreitenbach, Dorf",47.4195122127196,8.36671991124421
776,8590272,"Spreitenbach, Fegistrasse",47.4302513462254,8.36981909897486
777,8590273,"Spreitenbach, Furttalstrasse",47.4254624617068,8.36466276924329
778,8590274,"Spreitenbach, Härdlistrasse",47.4312783472029,8.36779788958531
779,8590275,"Spreitenbach, IKEA",47.4220650066085,8.373574056863
780,8590276,"Spreitenbach, Interio",47.4269757476837,8.36460887032624
781,8590277,"Spreitenbach, Langäcker",47.4231833344629,8.36310868380155
782,8590278,"Spreitenbach, Rotzenbühl",47.4258028029072,8.36088086189663
783,8590279,"Spreitenbach, Shopping Center",47.4204482515178,8.3685165418127
784,8590279,"Spreitenbach, Shopping Center",47.4204117827852,8.36877705324513
785,8590279,Shopping Center,47.4204117827852,8.36877705324513
786,8590314,"Würenlos, Büntenstrasse",47.4444938788455,8.36730381617897
787,8590318,"Zürich, Farbhof",47.3911313988428,8.47917101852595
788,8590396,"Spreitenbach, Spreiti West",47.4292060938837,8.35788947200009
789,8590397,"Spreitenbach, Center Spreitenb",47.4221561755295,8.36985503158623
790,8590461,"Adlikon b. R., Pächterried",47.445897264461,8.47004413523802
791,8590462,"Adlikon b. R., Leematten",47.4525856138756,8.46706172849433
792,8590463,"Adliswil, Badstrasse",47.3135960862281,8.5338065541137
793,8590464,"Adliswil, Bahnhof",47.3117811023922,8.52431136155924
794,8590465,"Adliswil, Baumgartenweg",47.3096006031465,8.52561391872139
795,8590466,"Adliswil, Bodenacker",47.3164037068786,8.51773569367857
796,8590467,"Adliswil, Büchel",47.301103106761,8.52210150596
797,8590469,"Adliswil, Feldblumenstrasse",47.3146253614429,8.51908316660494
798,8590470,"Adliswil, Friedhof",47.3068839894096,8.52963837119481
799,8590471,"Adliswil, Baldernstrasse",47.3207884125064,8.51558872014922
800,8590472,"Adliswil, Grüt",47.3224386727333,8.52898260103731
801,8590473,"Adliswil, Hofackerstrasse",47.3151369463988,8.53576488143336
802,8590474,"Adliswil, Krone",47.3130783958505,8.52764411126379
803,8590475,"Adliswil, Landolt-Junker-Str.",47.3033448728597,8.52226320271116
804,8590476,"Adliswil, Ahornweg",47.3187909806225,8.53439045904846
805,8590477,"Adliswil, Moos",47.3251362195887,8.53114754087234
806,8590478,"Adliswil, Poststrasse",47.3132002058073,8.52520069369064
807,8590479,"Adliswil, Zopf",47.319162459951,8.51635228814083
808,8590480,"Adliswil, Rifertstrasse",47.3099477836289,8.53183026048837
809,8590481,"Adliswil, Rütistrasse/Wacht",47.3070179960516,8.53219856975491
810,8590482,"Adliswil, Schulhaus Kopfholz",47.3087965974842,8.53444435796552
811,8590484,"Adliswil, Tiefacker",47.3165681399064,8.53001566361419
812,8590485,"Adliswil, Tobelhof",47.3091986018442,8.52847954447813
813,8590486,"Adliswil, Wanneten-/Haldenstr.",47.3059154767601,8.52246981522654
814,8590487,"Aesch bei Maur, Im Brünneli",47.3302751827274,8.65471080822018
815,8590488,"Aesch bei Maur, Zollingerheim",47.3266828321782,8.65634574203751
816,8590503,"Bassersdorf, Chlupfgasse",47.4446275362315,8.62462622935083
817,8590504,"Benglen, Gerlisbrunnen",47.3609219978825,8.63279191528461
818,8590505,"Binz bei Maur, Fridlimatt",47.3592668549544,8.62461724619799
819,8590506,"Brütten, Zelgli",47.4714189822678,8.67387187323312
820,8590507,"Brüttisellen, Gsellhof",47.4217064073206,8.62966577809544
821,8590508,"Brüttisellen, Haldenbrücke",47.4188132118543,8.63136359398266
822,8590510,"Dübendorf, Sport Heerenschürli",47.404472529051,8.59561064566973
823,8590512,"Dietikon, Birmensdorferstrasse",47.3975773985575,8.41739387642845
824,8590513,"Dietikon, Dörfli",47.4004109564656,8.40662307617036
825,8590514,"Dietikon, Rapidplatz",47.4102117024928,8.40499712550588
826,8590515,"Dietikon, Hagackerstrasse",47.4175306730896,8.39679550696072
827,8590516,"Dietikon, Hätschen",47.4020648082454,8.39384004967556
828,8590517,"Dietikon, Hofacker",47.3982584392623,8.41167160806781
829,8590518,"Dietikon, Lätten",47.4021803327165,8.38515334087691
830,8590519,"Dietikon, Lerzen",47.4176400851983,8.39908621093555
831,8590520,"Dietikon, Moosmatt",47.4194453521686,8.39385801598124
832,8590521,"Dietikon, Oberdorf",47.4017364741549,8.39637329877713
833,8590523,"Dietikon, Pestalozzi",47.4140962329948,8.39976893055157
834,8590525,"Dietikon, Schäflibach",47.4000035658888,8.41107871998021
835,8590526,"Dietikon, Schönenwerd",47.3971760668772,8.42466124707799
836,8590528,"Dietikon, Silbern",47.4181992990924,8.39295071754416
837,8590529,"Dietikon, Sommerau",47.4027883520734,8.40534746846673
838,8590531,"Dietikon, Stadthalle Ost",47.405506112808,8.39027373799711
839,8590532,"Dietikon, Staffelackerstrasse",47.4019006414559,8.39081272716765
840,8590533,"Dietikon, Stelzenacker",47.4043205297292,8.39180985713316
841,8590535,"Dietikon, Vorstadt",47.4091234962522,8.39787348530182
842,8590536,"Dietikon, Weidstrasse",47.4007271380257,8.3882615117604
843,8590537,"Dietikon, Weinberg",47.4023019371493,8.38230568142586
844,8590538,"Dietlikon, Aegert",47.4120658568626,8.62143721009176
845,8590539,"Dietlikon, Bahnhof/Bad",47.4219616816404,8.62080838939279
846,8590540,"Dietlikon, Brandbachstrasse",47.4169653735725,8.62465317880936
847,8590541,"Dietlikon, Dornenstrasse",47.4165824252901,8.61689173475348
848,8590542,"Dietlikon, Dübendorferstrasse",47.4129351592208,8.6203232991393
849,8590543,"Dietlikon, Hofwiesen",47.4263923172796,8.61851768541797
850,8590544,"Dietlikon, Hörnligraben",47.4121388058638,8.61454713186161
851,8590545,"Dietlikon, Industriestrasse",47.4142482041072,8.62194924980378
852,8590547,"Dübendorf, Alterszentrum",47.3879081032986,8.62039516436204
853,8590548,"Dübendorf, Bahnhof Nord",47.400739298817,8.62425792008429
854,8590549,"Dübendorf, Bauhof",47.3948166612524,8.63457956270026
855,8590550,"Dübendorf, Bettlistrasse",47.3970483697924,8.6256143761635
856,8590551,"Dübendorf, Branzenäsch",47.3946646340713,8.63115698146729
857,8590552,"Dübendorf, Breitibach",47.3959659725499,8.6081331607321
858,8590553,"Dübendorf, Chriesmatt",47.4054696337266,8.6251921679799
859,8590554,"Dübendorf, City Center",47.3969997232025,8.61648749287557
860,8590555,"Dübendorf, Claridenstrasse",47.394877472002,8.6287045807413
861,8590556,"Dübendorf, Innovationspark",47.4056581087088,8.6306090091439
862,8590557,"Dübendorf, EMPA",47.4018702401424,8.61143896097812
863,8590558,"Dübendorf, Flugplatz",47.40238097988,8.62740202357915
864,8590559,"Dübendorf, Gfenn",47.3930713628293,8.64747038702917
865,8590561,"Dübendorf, Am Ring",47.4021499315644,8.60765705363145
866,8590562,"Dübendorf, Glärnischstrasse",47.3962396144022,8.62993527268072
867,8590563,"Dübendorf, Grüzenstrasse",47.3912895177028,8.61716122933876
868,8590565,"Dübendorf, Heidenrietstrasse",47.3942936859087,8.6520068792146
869,8590566,"Dübendorf, Hoffnung",47.3960024582124,8.59995849164547
870,8590567,"Dübendorf, Högler",47.3917821157256,8.61471781176561
871,8590568,"Dübendorf, Im Grund",47.4015540654426,8.61758343752235
872,8590569,"Dübendorf, Kämmaten",47.3894893672541,8.59665269139945
873,8590570,"Dübendorf, Kirche Wil",47.3893373247045,8.61820327506848
874,8590571,"Dübendorf, Kreuzbühl",47.3888386220629,8.62155399107871
875,8590573,"Dübendorf, Kunsteisbahn",47.3892156903489,8.62891119325668
876,8590574,"Dübendorf, Lindenbühl",47.3949078773505,8.64574562168342
877,8590575,"Dübendorf, Lindenplatz",47.398507746605,8.62029634968077
878,8590576,"Dübendorf, Meiershofstrasse",47.3967017618595,8.61360390081315
879,8590577,"Dübendorf, Memphis",47.399924519591,8.61631681297157
880,8590578,"Wallisellen, Neugut",47.4048312457116,8.60427040500985
881,8590579,"Dübendorf, Neugut Süd",47.4028430734713,8.6013598634889
882,8590580,"Dübendorf, Post",47.3961666433806,8.61690970105917
883,8590581,"Dübendorf, Raubbühl",47.3915571023852,8.63487600674406
884,8590582,"Dübendorf, Ringstrasse",47.4001494972038,8.60727077805923
885,8590583,"Dübendorf, Ringwiesen",47.3975348332211,8.60421650609279
886,8590584,"Dübendorf, Schossacher",47.3948896341435,8.64022996583816
887,8590586,"Dübendorf, Schwimmbad",47.3965132548335,8.62315299228467
888,8590587,"Dübendorf, Sonnenberg",47.3930531189865,8.63336683706653
889,8590588,"Dübendorf, Sonnental",47.395436927606,8.60365955061656
890,8590589,"Dübendorf, Stadthaus",47.3968902682111,8.6200268550955
891,8590590,"Dübendorf, Sunnhalde",47.3905354081066,8.63246852178228
892,8590591,"Dübendorf, Unterdorf",47.3986719239669,8.61827514029122
893,8590592,"Dübendorf, Wasserfurren",47.393983546916,8.61124133161558
894,8590593,"Dübendorf, Zelglistrasse",47.3939288163161,8.6174666565354
895,8590594,"Dübendorf, Zwinggarten",47.4042779698405,8.61971244474601
896,8590596,"Ebmatingen, Leeacherstrasse",47.3547697154823,8.63439091649057
897,8590597,"Ebmatingen, Looren",47.3404298621773,8.65146789004406
898,8590600,"Egetswil, Dorf",47.471916903027,8.58243236044986
899,8590601,"Egg, Station",47.3013224141611,8.68967323908298
900,8590602,"Fahrweid, Brunaustrasse",47.4144184112325,8.41404316041822
901,8590603,"Fahrweid, Limmatbrücke",47.4075975379011,8.41188720373603
902,8590604,"Fällanden, Bruggacher",47.3749642829026,8.63263021853345
903,8590605,"Fällanden, Eggler",47.3715879049841,8.6347143099929
904,8590606,"Fällanden, Gemeindehaus",47.3718130035707,8.64016708376826
905,8590607,"Fällanden, Industrie",47.3761201103581,8.64435323299284
906,8590608,"Fällanden, Jugendherberge",47.3597171563338,8.65359689726772
907,8590609,"Fällanden, Neuhus",47.3685094333057,8.64513476729013
908,8590610,"Fällanden, Schützenhaus",47.368625031339,8.63247750493513
909,8590611,"Fällanden, Wigarten",47.3710099447534,8.64217032685213
910,8590612,"Fällanden, Zil",47.3722449468164,8.63621449651758
911,8590613,"Forch, Bahnhof",47.3257451275876,8.64956346164146
912,8590614,"Geroldswil, Dorfstrasse",47.419840436011,8.41313586198113
913,8590615,"Geroldswil, Grindlen",47.4181202800981,8.41532775127469
914,8590616,"Geroldswil, Schweizäcker",47.4228794433749,8.40437728795975
915,8590617,"Geroldswil, Welbrig",47.4180716529658,8.41906474285715
916,8590618,"Geroldswil, Zentrum",47.4214572097669,8.40944378616289
917,8590619,"Glanzenberg, Bahnhof",47.3987084077557,8.41958576572201
918,8590620,"Glattbrugg, Bahnhof",47.4305673486607,8.55935464079762
919,8590621,"Glattbrugg, Frohbühlstrasse",47.4280939712161,8.5573603808666
920,8590622,"Glattbrugg, Giebeleichstrasse",47.4285497620364,8.56351384056367
921,8590623,"Glattbrugg, Halden",47.4280939712161,8.56964035080222
922,8590625,"Glattbrugg, Lättenwiesen",47.4281243573936,8.56569674670439
923,8590626,"Glattpark, Lindberghplatz",47.4256022449661,8.56107042299053
924,8590627,"Glattbrugg, Mode Center TMC",47.4234446793956,8.55902226414245
925,8590628,"Glattbrugg, Oberhusen",47.4270122118692,8.56970323287212
926,8590629,"Glattbrugg, Post",47.4305369638936,8.56111533875474
927,8590631,"Glattbrugg, Zentrum",47.4333748254457,8.56575064562144
928,8590632,"Opfikon, Zil",47.4227335750295,8.57686280568755
929,8590633,"Glattpark, Chavez-Allee",47.4223385128979,8.56082787786378
930,8590634,"Glattpark, Lindbergh-Allee",47.4243137939096,8.56263349158511
931,8590635,"Gockhausen, Ursprungstrasse",47.3848488310571,8.6000483231739
932,8590636,"Greifensee, Im Langacher",47.3645241882976,8.68513674689754
933,8590637,"Greifensee, Pfisterhölzli",47.3639765738521,8.69076020057691
934,8590638,"Greifensee, Städtli",47.3653212613869,8.67813887083328
935,8590639,"Greifensee, Tumigerstrasse",47.366264347578,8.67975583834492
936,8590640,"Greifensee, Im Hof",47.3648892614364,8.6813189069395
937,8590641,"Herrliberg, Busenhardstrasse",47.2909591454858,8.61049572992966
938,8590642,"Herrliberg, Kirche Wetzwil",47.2965705501483,8.62546166256518
939,8590643,"Herrliberg, Oberdorfweg",47.2869680447881,8.61650545918126
940,8590644,"Herrliberg, Rain",47.2928662368816,8.60710908130806
941,8590645,"Herrliberg, Rebberg",47.2887838806133,8.6147357780713
942,8590646,"Herrliberg, Wetzwil",47.2947062407085,8.63078867220075
943,8590647,"Herrliberg-Feldmeilen,Bhf West",47.282519592963,8.61178032078613
944,8590648,"Hinteregg, Station",47.3058606547587,8.68405876855645
945,8590650,"Horgen, Altersheim/Tödistrasse",47.2618385224356,8.58463323289626
946,8590651,"Horgen, Dorfgasse",47.2601010177207,8.59901526059702
947,8590652,"Horgen, Glärnischhof",47.2545893974066,8.60948961681131
948,8590653,"Horgen, Käpfnach",47.2544613551605,8.61586765532945
949,8590655,"Horgen, Panorama/CS",47.2581439704451,8.58706766731656
950,8590658,"Horgen, Rotweg",47.2567599712303,8.60841163847022
951,8590659,"Horgen, Schärbächli/Fähre",47.259168228509,8.60269835326242
952,8590660,"Horgen, Schinzenhof",47.2605765509943,8.59744320884959
953,8590661,"Horgen, Teufenbach",47.2562173361156,8.60520465290546
954,8590663,"Horgen, Wannenthal",47.2566014491875,8.60223122931461
955,8590665,"Horgenberg, Nordecke",47.2598815393846,8.57815637969686
956,8590668,"Itschnach, Rebweg",47.3265914980472,8.59808999585425
957,8590669,"Itschnach, Tägermoos",47.3258669083451,8.59401164446377
958,8590670,"Kilchberg ZH, Altersheim",47.3198932313352,8.54075053126092
959,8590671,"Kilchberg ZH, Auf Brunnen",47.31877271108,8.54575414739416
960,8590672,"Kilchberg ZH, Bächlerstrasse",47.3290331094943,8.53960068769708
961,8590673,"Kilchberg ZH, Bahnhof",47.3243811639222,8.54808078398035
962,8590674,"Kilchberg ZH, Bendlikon",47.3220915743096,8.55060504992908
963,8590675,"Kilchberg ZH, Gottlieb-Binder",47.3229745395057,8.54283462272036
964,8590677,"Kilchberg ZH, Hornhaldenstr.",47.3321077962606,8.54184647590769
965,8590678,"Kilchberg ZH, Kirche",47.3177739664749,8.54151409925252
966,8590679,"Kilchberg ZH, Spital",47.3217079365566,8.53537860586113
967,8590680,"Kilchberg ZH, Kreuzstrasse",47.3250631501571,8.54526007398782
968,8590681,"Kilchberg ZH, Lindt & Sprüngli",47.3190711128173,8.55112607279394
969,8590682,"Kilchberg ZH, Mythenstrasse",47.3263601175418,8.54066968288533
970,8590683,"Kilchberg ZH, Paradiessteig",47.3296906813151,8.54314903306985
971,8590684,"Kilchberg ZH, Paradiesstrasse",47.3287286753233,8.54721840130748
972,8590685,"Kilchberg ZH, Sanatorium",47.3271090560347,8.544451590232
973,8590686,"Kilchberg ZH, Schlimbergstr.",47.3247708714203,8.54300530262437
974,8590688,"Kilchberg ZH, Schoorenstrasse",47.3173050371903,8.54949113897661
975,8590689,"Kilchberg ZH,Schulhaus Dorfstr",47.3217566526162,8.54780230624223
976,8590690,"Kilchberg ZH, Schwelle",47.3216774889966,8.54523312452929
977,8590691,"Kilchberg ZH, Stockengut",47.3241132383495,8.54037323884153
978,8590692,"Kilchberg ZH, Weinbergstrasse",47.3319860298918,8.54328378036248
979,8590693,"Kloten, Breitistrasse/Bahnhof",47.4479567106264,8.58413915948993
980,8590694,"Kloten, Buchhalden",47.444572858251,8.59544894891857
981,8590697,"Kloten, Schluefweg",47.4460612941021,8.58130946634456
982,8590698,"Kloten, Schulstrasse",47.4458425878003,8.58766953855701
983,8590699,"Kloten, Stadthaus",47.4512613760728,8.58110285382918
984,8590700,"Kloten, Wallisellenstrasse",47.4441658092765,8.58986142785056
985,8590701,"Küsnacht ZH, Gartenstrasse",47.3115009315485,8.58752580811153
986,8590702,"Küsnacht ZH, Hallenbad",47.3135656339933,8.58510035684407
987,8590703,"Küsnacht ZH, Oberfeld",47.313139300864,8.58880141581516
988,8590704,"Küsnacht ZH, Reform. Kirche",47.3165925003114,8.58390559751602
989,8590705,"Küsnacht ZH, Zentrum",47.318279431043,8.58188438812647
990,8590706,"Langnau am Albis, Altersheim",47.2862368181256,8.53382452041939
991,8590707,"Langnau am Albis, Hehlstrasse",47.2844574576883,8.5368967586915
992,8590708,"Langnau am Albis, Langmoos",47.2831228980817,8.53439944220131
993,8590709,"Langnau am Albis, Unterrengg",47.2809899703631,8.53747168047342
994,8590710,"Lindau, Nürensdorferstrasse",47.4408060161121,8.6708625170309
995,8590711,"Maiacher, Station",47.3281502455642,8.6317947853191
996,8590712,"Maur, Aschbach",47.3519032736892,8.66081935215304
997,8590713,"Maur, Dorf",47.3404846483165,8.66963182509148
998,8590714,"Maur, Kirche",47.3378487618575,8.67400662052575
999,8590715,"Maur, Platten",47.3433577972773,8.66072053747178
1000,8590716,"Maur, See",47.3400707071902,8.67865989369814
1001,8590720,"Nänikon, Grossriet",47.3740456861725,8.68079788407464
1002,8590721,"Nänikon, Heuwinkelstrasse",47.3693307822574,8.68258553149029
1003,8590722,"Neuhaus bei Hinteregg, Station",47.31277386973,8.67378204170469
1004,8590723,"Niederhasli, Bahnhof",47.4782740863515,8.48854044694062
1005,8590725,"Oberengstringen, Eggbühl",47.4055243523393,8.47408655401713
1006,8590726,"Oberengstringen, Lanzrain",47.4073361143057,8.46795106062573
1007,8590727,"Oberengstringen, Paradies",47.4104852703573,8.45874332896223
1008,8590728,"Oberengstringen, Zentrum",47.4091295756792,8.46260608468448
1009,8590729,"Oberhasli, Dorf",47.4653160336392,8.5005149896796
1010,8590730,"Oberhasli, Hasliberg",47.4687349866837,8.50315603661528
1011,8590731,"Oberhasli, Moosacker",47.4706174413802,8.49904175261344
1012,8590732,"Oberhasli, Post",47.4681095110071,8.5007485516535
1013,8590733,"Oberhasli, Spielplatz",47.471910830851,8.49987718582779
1014,8590734,"Oberrieden Dorf, Bahnhof",47.2768274666335,8.57726704756546
1015,8590735,"Oberrieden, Hubstrasse",47.2794420203996,8.57462600062978
1016,8590736,"Oberrieden, Wattenbühlweg",47.2732741480189,8.58015962278072
1017,8590737,"Oetwil an der Limmat, Halde",47.4253712985116,8.40014622297095
1018,8590738,"Oetwil an der Limmat, Oberdorf",47.4277354129969,8.39814297988709
1019,8590739,"Oetwil an der Limmat, Post",47.4278204948293,8.39481921333538
1020,8590740,"Opfikon, Aublick",47.4246784530687,8.57752755899789
1021,8590741,"Opfikon, Austrasse",47.4250370321119,8.57520990556454
1022,8590742,"Opfikon, Bahnhof",47.4296011044762,8.56165432792529
1023,8590743,"Opfikon, Bubenholz",47.434498989524,8.5716885096503
1024,8590744,"Opfikon, Dorf",47.4322202535572,8.57794078402864
1025,8590745,"Opfikon, Fernsicht",47.4234811460273,8.58196523650205
1026,8590746,"Opfikon, Grätzli",47.4249215577714,8.58137234841445
1027,8590747,"Opfikon, Grossacker",47.4267691168218,8.57909062759247
1028,8590748,"Opfikon, Neuwiesen",47.4280392760524,8.57433853973882
1029,8590750,"Opfikon, Vreniker",47.4283188285141,8.57959368415165
1030,8590751,"Pfaffhausen, Feldhof",47.3640678433212,8.6200897371654
1031,8590752,"Pfaffhausen, Pfaffenstein",47.3685581061927,8.62856085029582
1032,8590753,"Pfaffhausen, Sängglen",47.3670492258103,8.62476097664347
1033,8590754,"Regensdorf, Altersheim",47.434492913026,8.46732223992676
1034,8590755,"Regensdorf, Moosächer",47.439839959916,8.45672211957268
1035,8590756,"Regensdorf, Feldblumenstrasse",47.4360302446601,8.4644296647115
1036,8590757,"Regensdorf, Pumpwerkstrasse",47.4461220456912,8.46237252271058
1037,8590758,"Regensdorf, Querstrasse",47.444578933585,8.46206709551393
1038,8590759,"Regensdorf, Strassenverkehrs.",47.4397123662621,8.46168081994171
1039,8590760,"Regensdorf, Zentrum Ost",47.4302209612758,8.47011600046076
1040,8590762,"Rümlang, Bäuler",47.4355441367459,8.55790835318999
1041,8590765,"Rümlang, Letten",47.4387462899844,8.53474978516216
1042,8590766,"Rümlang, Oberdorf",47.4519660205224,8.53028515819947
1043,8590767,"Rümlang, Gemeindehaus",47.4500646737807,8.5298270174045
1044,8590768,"Rümlang, Riedmattstrasse",47.461489943303,8.52699732425913
1045,8590771,"Rüschlikon, Bahnhof",47.3081814030742,8.55359643982561
1046,8590772,"Rüschlikon, Belvoir",47.3070423608591,8.54865570576227
1047,8590773,"Rüschlikon, Bodengasse",47.3104228690144,8.55270710769421
1048,8590775,"Rüschlikon, Eggrain",47.3045631841301,8.54430785978652
1049,8590776,"Rüschlikon, Langhaldenstrasse",47.3060738511114,8.55110810648825
1050,8590777,"Rüschlikon, Loorain",47.3073651934981,8.54199918950602
1051,8590779,"Rüschlikon, Moosstrasse",47.3026138726202,8.54543973704467
1052,8590780,"Rüschlikon, Park im Grüene",47.3003720755237,8.55037148795517
1053,8590781,"Rüschlikon, Rebsteig",47.31235971139,8.55076674668024
1054,8590782,"Rüschlikon, Säumerstrasse",47.3081083101931,8.54616737242491
1055,8590783,"Rüschlikon, Schlossstrasse",47.3136874428271,8.55379406918815
1056,8590784,"Rüschlikon, Weidstrasse",47.3057083711232,8.55294066966811
1057,8590785,"Scheuren, Station",47.3227187855878,8.65912153626582
1058,8590786,"Schlieren, Bahnhof",47.3994319976798,8.44854745048605
1059,8590787,"Schlieren, Bahnhof Nord",47.4010919605449,8.44922118694924
1060,8590788,"Schlieren, Brunngasse",47.3964889312972,8.44806236023256
1061,8590789,"Schlieren, Am Rietpark",47.4013777364204,8.44507995348887
1062,8590790,"Schlieren, Feldstrasse",47.4034267648456,8.44789168032855
1063,8590791,"Schlieren, Gasometerbrücke",47.3976078023481,8.46060284160061
1064,8590792,"Schlieren, Heimeliweg",47.3945612553376,8.43748020618416
1065,8590793,"Schlieren, Industrie Gaswerk",47.4009521122111,8.46301032656239
1066,8590794,"Schlieren, Kesslerstrasse",47.3963794752447,8.43887259487474
1067,8590795,"Schlieren, Mülligen",47.3956436814348,8.46728630731539
1068,8590796,"Schlieren, Nassacker",47.3948531477106,8.44173822063148
1069,8590797,"Schlieren, Reitmen",47.3971091779666,8.433383888488
1070,8590798,"Schlieren, Goldschlägistrasse",47.4004048760324,8.43922293783559
1071,8590799,"Schlieren, Rütistrasse",47.4008061831193,8.45373971282899
1072,8590800,"Schlieren, Spital Limmattal",47.3926152648649,8.42975469473966
1073,8590801,"Schlieren, Steinacker",47.3961788052245,8.4263770292709
1074,8590802,"Schlieren, Talacker-Windegg",47.4056216297327,8.44781083195297
1075,8590803,"Schlieren, Wagonsfabrik",47.3985138272571,8.45417988731826
1076,8590805,"Schlieren, Zentrum/Bahnhof",47.3978206283911,8.4484306694991
1077,8590806,"Schwerzenbach ZH, Dorf",47.3804998581775,8.65199789606176
1078,8590807,"Sihlwald, Bahnhof",47.2684161377217,8.55731546510238
1079,8590811,"Thalwil, Aegertli",47.2964730715447,8.55968701745279
1080,8590812,"Thalwil, Alterszentrum",47.2855726118129,8.56982001385907
1081,8590813,"Thalwil, Archstrasse",47.2960770628697,8.56172619314803
1082,8590814,"Thalwil, Aubrigstrasse",47.2880831459867,8.56982001385907
1083,8590815,"Thalwil, Böni",47.2848535533755,8.56528352167363
1084,8590817,"Thalwil, Gewerbestrasse",47.2866877424289,8.56541826896627
1085,8590818,"Thalwil, In Reben",47.2919401180198,8.56793355176215
1086,8590819,"Thalwil, Mettli",47.2821844204798,8.57300004996529
1087,8590820,"Thalwil, Oeggisbüelplatz",47.2848352721014,8.57158969496903
1088,8590822,"Thalwil, Pilgerweg",47.2981606444952,8.56111533875474
1089,8590823,"Thalwil, Platte",47.2899842479224,8.56837372625144
1090,8590824,"Thalwil, Post",47.2968142458712,8.56266044104364
1091,8590825,"Thalwil, Rainstrasse",47.2869497642448,8.57171545910882
1092,8590826,"Thalwil, Rudishaldenstrasse",47.2933475685692,8.5592648092692
1093,8590828,"Thalwil, Seehaldenstrasse",47.297770740728,8.55400966485636
1094,8590829,"Thalwil, Trotte",47.2911967740428,8.56602912335956
1095,8590830,"Thalwil, Zehntenstrasse",47.2898989435306,8.57052069978078
1096,8590831,"Unterengstringen, Aegelsee",47.414977659342,8.44603216769017
1097,8590832,"Unterengstringen, Eckstein",47.4104852703573,8.44903254073954
1098,8590833,"Unterengstringen, Langacher",47.4122360710415,8.45315580789423
1099,8590834,"Urdorf Weihermatt, Bahnhof",47.3800923136629,8.42997029040787
1100,8590837,"Urdorf, Feldegg",47.3920253723101,8.42791314840695
1101,8590838,"Urdorf, Heinrich-Stutz-Strasse",47.3704258942966,8.4247061628422
1102,8590839,"Urdorf, Herweg",47.3934605633042,8.41931627113673
1103,8590840,"Urdorf, Luberzen",47.3951754436608,8.42299038064929
1104,8590841,"Urdorf, Neumatt",47.3872086829556,8.42040323263067
1105,8590842,"Urdorf, Neumattstrasse",47.3873485677666,8.42315207740046
1106,8590843,"Urdorf, Niederurdorf",47.3903347158316,8.41857066945081
1107,8590844,"Urdorf, Oberurdorf",47.3778051397306,8.42297241434361
1108,8590845,"Urdorf, Rainweg",47.3894042234804,8.42533498354117
1109,8590846,"Urdorf, Schlierenstrasse",47.3911618063527,8.42315207740046
1110,8590847,"Urdorf, Sonne",47.3812601939996,8.42253223985433
1111,8590848,"Urdorf, Spitzacker",47.3843440036605,8.42182257077978
1112,8590849,"Urdorf, Uitikonerstrasse",47.3822577379675,8.42592787162877
1113,8590851,"Volketswil, Chappeli",47.3894589587793,8.67489595265716
1114,8590852,"Volketswil, Milandia",47.378267448845,8.67424018249966
1115,8590878,"Regensdorf-Watt, Bahnhof",47.4367107881954,8.47283789577203
1116,8590879,"Waldburg, Station",47.3453908209261,8.59330197538922
1117,8590880,"Wallisellen, Alterszentrum",47.4185275305685,8.59546691522425
1118,8590881,"Wallisellen, Belair",47.4139503403143,8.58523510413671
1119,8590882,"Wallisellen, Blumenweg",47.4126190509326,8.60448600067807
1120,8590883,"Wallisellen, Bützacker",47.4215848476857,8.60038968298191
1121,8590884,"Wallisellen, Florastrasse",47.4117011103409,8.59727252894558
1122,8590885,"Wallisellen, Furtbach",47.4115126569816,8.60810621127357
1123,8590886,"Wallisellen, Gemeindehaus",47.4163696750409,8.59102025456724
1124,8590887,"Wallisellen, Guyer-Weg",47.416862038596,8.60029985145349
1125,8590888,"Wallisellen, Hallenbad",47.4178467518945,8.59345468898754
1126,8590889,"Wallisellen, Herti",47.4164973252936,8.57907266128679
1127,8590890,"Wallisellen, Ifang",47.4101205128888,8.60498905723724
1128,8590892,"Wallisellen, Lindenplatz",47.4199133742423,8.59849423773215
1129,8590894,"Wallisellen, Riedenerstrasse",47.4110080849901,8.60161139176848
1130,8590895,"Wallisellen, Rosenberg",47.4123515732067,8.59785643388034
1131,8590896,"Wallisellen, Schäfligraben",47.423669556555,8.59937458671071
1132,8590897,"Wallisellen, Spitzacker",47.4109776889326,8.60559092847769
1133,8590898,"Wallisellen, Sportzentrum",47.4147709813847,8.60687551933416
1134,8590899,"Wallisellen, Zentrum",47.4141813368718,8.59086754096892
1135,8590900,"Wallisellen, Zielacker",47.4145764602134,8.60488125940313
1136,8590901,"Wangen b D'dorf, Dorfplatz",47.4104305568981,8.6458893521289
1137,8590902,"Wangen b D'dorf, Hätzelwisen",47.4103211298091,8.64272728232836
1138,8590903,"Wangen b D'dorf, Oberdorf",47.4079562332809,8.64600613311585
1139,8590904,"Wangen b D'dorf, Stierwisen",47.4096159275596,8.64281711385678
1140,8590905,"Wangen b D'dorf, Weidli",47.4124549170346,8.63986165657162
1141,8590906,"Wangen b D'dorf, Dürrbach",47.4080595857337,8.63758891890248
1142,8590907,"Wangen b D'dorf, Flugsicherung",47.4076461747059,8.63910707173285
1143,8590908,"Watt, Brünigstrasse",47.4461281208462,8.48165036871046
1144,8590910,"Weiningen ZH, Aegelsee",47.4157010258045,8.44455893062401
1145,8590911,"Weiningen ZH, Ausserdorf",47.4176826342903,8.43953734818508
1146,8590913,"Weiningen ZH, Lindenplatz",47.4195547602987,8.43394084396424
1147,8590914,"Weiningen ZH, Schulhaus",47.4183512583635,8.42866773324572
1148,8591023,"Zollikerb., Langägerten/Spital",47.3465168632049,8.59791931595024
1149,8591024,"Zollikerberg, Hasenbart",47.3501139508417,8.59773066974055
1150,8591027,"Zollikerberg, Sennhof",47.3476307084208,8.6155622281328
1151,8591028,"Zollikerberg, Station",47.346036015657,8.60216834724472
1152,8591029,"Zollikerberg, Trichtenhauserm.",47.3506191059545,8.6019527515765
1153,8591031,"Zürich Flughafen, REGA",47.4584470917332,8.57291920158971
1154,8591032,"Zürich Flughafen, Werkhof",47.4441172062033,8.55001216184148
1155,8591033,"Zürich, Aargauerstrasse",47.3921774071053,8.50249128330494
1156,8591034,"Zürich, Albisgütli",47.3519945640447,8.5077104951064
1157,8591035,"Zürich, Albisrank",47.3798185879667,8.49466695717917
1158,8591036,"Zürich, Albisrieden",47.3743802762382,8.48478548905248
1159,8591037,"Zürich, Albisriederdörfli",47.3753171171281,8.48521668038892
1160,8591038,"Zürich, Albisriederplatz",47.3782127019246,8.51039645780629
1161,8591039,"Zürich, Alte Trotte",47.3975956408339,8.50765659618934
1162,8591040,"Zürich, Altenhofstrasse",47.3553052542238,8.56141178279854
1163,8591041,"Zürich, Althoos",47.4107041236259,8.52405983327965
1164,8591043,"Zürich, Am Börtli",47.3996265747874,8.50714455647732
1165,8591044,"Zürich, Am Suteracher",47.3909428718897,8.46978362380559
1166,8591045,"Zürich, Appenzellerstrasse",47.3989090681422,8.50952509198057
1167,8591046,"Zürich, Aspholz",47.4249823337716,8.50102702939162
1168,8591047,"Zürich, Aubrücke",47.4108804214308,8.57212868413958
1169,8591048,"Zürich, Ausserdorfstrasse",47.4245143567597,8.548556891081
1170,8591049,"Zürich, Auzelg",47.417093022381,8.56884085019924
1171,8591050,"Zürich, Auzelg Ost",47.4133424497947,8.57216461675095
1172,8591051,"Zürich, Bachmattstrasse",47.3889237667504,8.48305174055389
1173,8591052,"Zürich, Bäckeranlage",47.3786689245241,8.52310761907835
1174,8591053,"Zürich, Bad Allenmoos",47.4058952214384,8.53778609082291
1175,8591054,"Zürich Affoltern, Bahnhof",47.4211836988989,8.5074140510626
1176,8591056,"Zürich Altstetten, Bahnhof",47.3911070728222,8.48837875018946
1177,8591057,"Zürich Altstetten, Bahnhof N",47.392067942097,8.48990588617267
1178,8591058,"Zürich Enge, Bahnhof",47.3641286895461,8.53156974905593
1179,8591059,"Zürich Enge, Bahnhof/Bederstr.",47.3645546111557,8.53045583810347
1180,8591060,"Zürich Hardbrücke, Bahnhof",47.3852015991393,8.5171068729796
1181,8591061,"Zürich Leimbach, Bahnhof",47.3332523864039,8.51859807635144
1182,8591062,"Zürich Oerlikon, Bahnhof Nord",47.4124062846703,8.54393056736714
1183,8591063,"Zürich Oerlikon, Bahnhof Ost",47.413336370854,8.54584397892258
1184,8591064,"Zürich Selnau, Bahnhof",47.3706692494397,8.53200992354522
1185,8591065,"Stettbach, Bahnhof",47.3972733596864,8.59613166853459
1186,8591065,Bahnhof,47.3972733596864,8.59613166853459
1187,8591066,"Zürich Wipkingen, Bahnhof",47.3934423195962,8.52952159020786
1188,8591067,"Zürich, Bahnhofstrasse/HB",47.3762235252641,8.5394569572516
1189,8591068,"Zürich, Bändliweg",47.3963551516466,8.48501006787354
1190,8591070,"Zürich, Baslerstrasse",47.3887656407927,8.49014843129942
1191,8591071,"Zürich, Beckenhof",47.3840824646745,8.54044510406427
1192,8591072,"Zürich, Berghaldenstrasse",47.3585062020036,8.59002312460173
1193,8591073,"Zürich, Berninaplatz",47.4036395673838,8.54791010407634
1194,8591074,"Zürich, Bernoulli-Häuser",47.3937646241752,8.50870762507191
1195,8591075,"Zürich, Bertastrasse",47.3738875155843,8.51346869607841
1196,8591076,"Zürich, Berufswahlschule",47.4043752495356,8.53333044701305
1197,8591077,"Zürich, Besenrainstrasse",47.3454821225463,8.527859706932
1198,8591078,"Zürich, Bethanien",47.3809134822248,8.55599494163454
1199,8591079,"Zürich, Bezirksgebäude",47.3741673555329,8.52556001980434
1200,8591080,"Zürich Wollishofen, Bhf/Werft",47.347588102752,8.53434554328425
1201,8591081,"Zürich Wollishofen,Bhf/Staubst",47.3470342259279,8.5329172219823
1202,8591082,"Zürich, Billoweg",47.3514650777846,8.53197399093385
1203,8591083,"Zürich, Grubenstrasse",47.3628387345498,8.51167206550992
1204,8591084,"Zürich, Binz Center",47.3619016719907,8.51105222796379
1205,8591085,"Zürich, Birch-/Glatttalstrasse",47.4274011616099,8.54614042296638
1206,8591086,"Zürich, Birchdörfli",47.4075367418319,8.53059956854895
1207,8591087,"Zürich, Bircher-Benner",47.3757368651146,8.56479843142014
1208,8591088,"Zürich, Birchstrasse",47.4130445808784,8.53585471296178
1209,8591089,"Zürich, Bleulerstrasse",47.3471742173224,8.57158969496903
1210,8591090,"Zürich, Blumenfeldstrasse",47.4237789559068,8.50525809438041
1211,8591092,"Zürich, Bollingerweg",47.414284677109,8.53790287180986
1212,8591093,"Zürich, Kantonalbank",47.3681687218392,8.53974441814256
1213,8591094,"Zürich, Botanischer Garten",47.3593398770608,8.55783648796725
1214,8591097,"Zürich, Bristenstrasse",47.3900792881945,8.48705822672162
1215,8591098,"Zürich, Brunau/Mutschellenstr.",47.355147027434,8.52714105470461
1216,8591100,"Zürich, Brunaustrasse",47.3561328943156,8.53221653606059
1217,8591101,"Zürich, Bucheggplatz",47.398410456075,8.53328553124884
1218,8591102,"Zürich, Buchholz",47.360928082871,8.58870260113389
1219,8591103,"Zürich, Buhnstrasse",47.4222534222046,8.53894491753958
1220,8591104,"Zürich, Burgwies",47.35801937836,8.57186817270715
1221,8591105,"Zürich, Bürkliplatz",47.3665381436366,8.54078646387228
1222,8591106,"Zürich, Butzenstrasse",47.3414099167461,8.53031210765799
1223,8591107,"Zürich, Zentrum Witikon",47.3583236436636,8.58659156021591
1224,8591108,"Zürich, Chaletweg",47.4133728444873,8.53121940609508
1225,8591109,"Zürich, Chinagarten",47.3545141155307,8.55294965282095
1226,8591110,"Zürich, Löwenbräu",47.388400732926,8.52607205951636
1227,8591111,"Zürich, Dangelstrasse",47.3345491527085,8.52997074784998
1228,8591112,"Zürich, Dorflinde",47.4074029902327,8.54925757700271
1229,8591113,"Zürich, Dreispitz",47.4107953122193,8.56716998377055
1230,8591114,"Zürich, Dreiwiesen",47.3788209978467,8.57564109690097
1231,8591115,"Zürich, Drusbergstrasse",47.3603439207751,8.57883909931288
1232,8591116,"Zürich, Dunkelhölzli",47.3888872761869,8.47005311839087
1233,8591118,"Zürich, Einfangstrasse",47.4157010258045,8.51292970690786
1234,8591119,"Zürich, Englischviertelstrasse",47.3667328421914,8.55816886462242
1235,8591120,"Zürich, EPI-Klinik",47.348647147751,8.57065544707342
1236,8591121,"Zürich, Eschergutweg",47.3962700189648,8.51204037477646
1237,8591122,"Zürich, ETH Hönggerberg",47.4086796961913,8.5077104951064
1238,8591123,"Zürich, ETH/Universitätsspital",47.3772880786823,8.54823349757867
1239,8591124,"Zürich, Ettenfeld",47.4254624617068,8.55363237243698
1240,8591126,"Zürich, Fellenbergstrasse",47.3757186152716,8.48841468280083
1241,8591127,"Zürich, Felsenrainstrasse",47.4167890961376,8.54529600659919
1242,8591128,"Zürich, Fernsehstudio",47.4181749855684,8.56174415945371
1243,8591130,"Zürich, Feusisbergli",47.392669996829,8.47098736628648
1244,8591131,"Zürich, Fischerweg",47.3935700254199,8.51212122315204
1245,8591132,"Zürich, Flobotstrasse",47.3805789336139,8.56804134959626
1246,8591133,"Zürich, Flühgasse",47.3504608651139,8.56947865405106
1247,8591134,"Zürich, Flurstrasse",47.3815582426502,8.49198997763212
1248,8591135,"Zürich, Förrlibuckstrasse",47.3922138953909,8.51715178874381
1249,8591136,"Zürich, Frankental",47.4054696337266,8.48163240240478
1250,8591137,"Zürich, Freiestrasse",47.3628022259305,8.56297485139313
1251,8591138,"Zürich, Freihofstrasse",47.3832309334045,8.49937412926861
1252,8591140,"Zürich, Friedackerstrasse",47.4059377800205,8.5531921979477
1253,8591141,"Zürich, Friedhof Eichbühl",47.3828781521344,8.47453571165925
1254,8591142,"Zürich, Friedhof Enzenbühl",47.3509721030431,8.58027640376767
1255,8591143,"Zürich, Friedhof Hönggerberg",47.4089350336695,8.49413695116146
1256,8591144,"Zürich, Friedhof Schwandenholz",47.4213478055902,8.53775914136438
1257,8591145,"Zürich, Friedhof Sihlfeld",47.3759315297134,8.51089053121262
1258,8591146,"Zürich, Friedhof Uetliberg",47.358707015448,8.50060482120802
1259,8591147,"Zürich, Friedhof Witikon",47.3613418604422,8.60282411740221
1260,8591148,"Zürich, Friedrichstrasse",47.403937489493,8.5690654290203
1261,8591149,"Zürich, Friesenberg",47.3642868894025,8.50799795599736
1262,8591150,"Zürich, Friesenberghalde",47.3611167171662,8.50240145177651
1263,8591151,"Zürich, Friesenbergstrasse",47.3620659633829,8.50509639762925
1264,8591152,"Zürich, Frohburg",47.4042354099174,8.56261552527943
1265,8591153,"Zürich, Fronwald",47.4219616816404,8.51004611484544
1266,8591154,"Zürich, Frymannstrasse",47.3351336003511,8.51914604867483
1267,8591155,"Zürich, Geeringstrasse",47.4144427264912,8.48043764307674
1268,8591156,"Zürich, Germaniastrasse",47.3872999122223,8.55252744463736
1269,8591158,"Zürich, Giblenstrasse",47.4107284405996,8.485953298922
1270,8591159,"Zürich, Glattwiesen",47.4016027078276,8.58175862398668
1271,8591160,"Zürich, Glaubtenstrasse",47.4141691791835,8.51893943615946
1272,8591161,"Zürich, Glaubtenstrasse Süd",47.4136585537406,8.51868790787987
1273,8591162,"Zürich, Glockenacker",47.3609767627537,8.59930272148798
1274,8591163,"Zürich, Goldackerweg",47.3718920920352,8.48792959254734
1275,8591164,"Zürich, Goldauerstrasse",47.3862051506003,8.55015589228695
1276,8591165,"Zürich, Grimselstrasse",47.386965404139,8.49008554922952
1277,8591167,"Zürich, Grünaustrasse",47.395230172966,8.4892141834038
1278,8591168,"Zürich, Guggachstrasse",47.3957105722057,8.54013967686763
1279,8591169,"Zürich, Güterbahnhof",47.3803112931966,8.51997249873634
1280,8591170,"Zürich, Gutstrasse",47.3717339149876,8.50665048307099
1281,8591171,"Zürich, Hadlaubstrasse",47.3867951082994,8.55133268530932
1282,8591172,"Zürich, Hagenholz",47.414406253599,8.55552781768674
1283,8591173,"Zürich, Haldenbach",47.3802930449369,8.54837722802415
1284,8591174,"Zürich, Haldenegg",47.3796482690385,8.5445144723019
1285,8591175,"Zürich, Hallenbad Oerlikon",47.4107041236259,8.55586019434191
1286,8591176,"Zürich, Hardhof",47.3963490707453,8.49746970086601
1287,8591177,"Zürich, Hardplatz",47.3823428932854,8.51452870811382
1288,8591178,"Zürich, Hardturm",47.3941659818386,8.50450350954165
1289,8591180,"Zürich, Hedwigsteig",47.3604230264376,8.56503199339405
1290,8591181,"Zürich, Heerenwiesen",47.4047157270536,8.576323816517
1291,8591182,"Zürich, Hegianwandweg",47.3566440772991,8.51001018223407
1292,8591183,"Zürich, Helmhaus",47.3700730273448,8.54329276351533
1293,8591184,"Zürich, Helvetiaplatz",47.3763573560178,8.5253623904418
1294,8591186,"Zürich, Herdernstrasse",47.384830584368,8.50916576586688
1295,8591187,"Zürich, Hertensteinstrasse",47.4228794433749,8.54349039287786
1296,8591188,"Zürich, Herzogenmühlestrasse",47.4075306622211,8.57270360592149
1297,8591189,"Zürich, Heubeeriweg",47.3816555642937,8.56461876836329
1298,8591190,"Zürich, Heuried",47.3694098744442,8.50635403902719
1299,8591191,"Zürich, Himmeri",47.4198769051392,8.53865745664862
1300,8591192,"Zürich, Hinterbergstrasse",47.3801044792164,8.55457560348544
1301,8591193,"Zürich, Hirschwiesenstrasse",47.4002711063242,8.54350835918355
1302,8591194,"Zürich, Hirzenbach",47.4032504420914,8.59116398501272
1303,8591195,"Zürich, Höfliweg",47.3675785556983,8.51096239643537
1304,8591196,"Zürich, Hofstrasse",47.3733643325664,8.56155551324402
1305,8591197,"Zürich, Hohenklingensteig",47.4013473348052,8.49021131336931
1306,8591198,"Zürich, Hölderlinsteig",47.3670005515309,8.56504097654689
1307,8591199,"Zürich, Hölderlinstrasse",47.3661122380425,8.56239992961121
1308,8591200,"Zürich, Holzerhurd",47.423803266843,8.49661630134598
1309,8591201,"Zürich, Hönggerberg",47.404934604296,8.50473707151555
1310,8591202,"Zürich, Hottingerplatz",47.3694707145073,8.55440492358143
1311,8591203,"Zürich, Hubertus",47.377379325118,8.49914955044755
1312,8591204,"Zürich, Hügelstrasse",47.3585427135958,8.52699732425913
1313,8591206,"Zürich, Hürstholz",47.4168863527264,8.52286507395161
1314,8591207,"Zürich, Im Ebnet",47.4314971140527,8.54375090431029
1315,8591208,"Zürich, Im Gut",47.3736137576758,8.50336264913066
1316,8591209,"Zürich, Im Hagacker",47.3592668549544,8.5077104951064
1317,8591210,"Zürich, Im Hüsli",47.3282354882425,8.51269614493396
1318,8591211,"Zürich, Im Klösterli",47.3846298703704,8.57693467091029
1319,8591212,"Zürich, Im Walder",47.3481176279077,8.57436548919735
1320,8591213,"Zürich, Im Wingert",47.4014263789682,8.5088333892117
1321,8591214,"Zürich, In der Ey",47.3692395218944,8.49162166836558
1322,8591215,"Zürich, Juchhof",47.3983131653654,8.47317925558004
1323,8591216,"Zürich, Jugendherberge",47.3480019849363,8.52821004989286
1324,8591217,"Zürich, Kalchbühlweg",47.3405333470592,8.53152483329172
1325,8591218,"Zürich,Kalkbreite/Bhf.Wiedikon",47.3744228602761,8.52133793796839
1326,8591219,"Zürich, Kanonengasse",47.3784681870667,8.53030312450515
1327,8591220,"Zürich, Kantonsschule",47.3727194719378,8.5505242015535
1328,8591221,"Zürich, Kapfstrasse",47.3611532269519,8.5712034193968
1329,8591222,"Zürich, Kappeli",47.3849887221308,8.49539459255941
1330,8591223,"Zürich, Kappenbühlweg",47.4029646763743,8.49824225201046
1331,8591224,"Zürich, Käshaldenstrasse",47.4300204201689,8.54090324485924
1332,8591225,"Zürich, Genossenschaftsstrasse",47.415202572668,8.56237298015268
1333,8591226,"Zürich, Kempfhofsteig",47.3973037636525,8.51002814853975
1334,8591227,"Zürich, Kernstrasse",47.3745080282487,8.52426644579503
1335,8591228,"Zürich, Kienastenwies",47.3551531130885,8.60116223412636
1336,8591229,"Zürich, Kinkelstrasse",47.3888872761869,8.54633805232891
1337,8591230,"Zürich, Kirche Fluntern",47.3763999384591,8.55939057340899
1338,8591231,"Zürich, Klosbach",47.3700304397943,8.56415164441549
1339,8591233,"Zürich, Klusplatz",47.3640374201824,8.56649624730736
1340,8591234,"Zürich, Köschenrüti",47.4290420116892,8.53711235435972
1341,8591235,"Zürich, Krematorium Nordheim",47.4053662761919,8.52824598250423
1342,8591236,"Zürich, Altes Krematorium",47.3778051397306,8.50787219185756
1343,8591237,"Zürich, Kronenstrasse",47.3879567582815,8.53912458059643
1344,8591238,"Zürich, Krönleinstrasse",47.3841919462684,8.56103449037916
1345,8591239,"Zürich, Kunsthaus",47.3704380620805,8.54914079601576
1346,8591240,"Zürich, Lägernstrasse",47.3959112440089,8.53218060344922
1347,8591241,"Zürich, Landiwiese",47.3509842753143,8.5342287622973
1348,8591242,"Zürich, Langensteinenstrasse",47.3924936380744,8.54976063356189
1349,8591243,"Zürich, Langgrütstrasse",47.3737415115433,8.50106296200299
1350,8591244,"Zürich, Langmauerstrasse",47.3935396192995,8.54478396688717
1351,8591245,"Zürich, Laubegg",47.3587313564196,8.51708890667391
1352,8591246,"Zürich, Laubiweg",47.394993012233,8.53633980321527
1353,8591247,"Zürich, Lehenstrasse",47.3961423196842,8.52071810042226
1354,8591248,"Zürich, Leimgrübelstrasse",47.4286469969006,8.54367005593471
1355,8591249,"Zürich, Lerchenhalde",47.4116342398713,8.50987543494143
1356,8591250,"Zürich, Lerchenrain",47.4142907559401,8.5094891593692
1357,8591251,"Zürich, Lettenstrasse",47.390571897529,8.53273755892545
1358,8591252,"Zürich, Letzigrund",47.3812358634232,8.5037309583972
1359,8591253,"Zürich, Letzipark",47.3877743018639,8.49921243251745
1360,8591254,"Zürich, Letzipark West",47.3863632842396,8.49646358774766
1361,8591255,"Zürich, Letzistrasse",47.3906813656447,8.54549363596172
1362,8591256,"Zürich, Leutschenbach",47.4146433269471,8.55130573585079
1363,8591257,"Zürich, Limmatplatz",47.3845994590919,8.53162364797299
1364,8591258,"Zürich, Lindenplatz",47.3878168750845,8.48611499567316
1365,8591259,"Zürich, Lochergut",47.3754144502921,8.51752009801035
1366,8591260,"Zürich, Loogarten",47.3894285502869,8.47232585606
1367,8591261,"Zürich, Loorenstrasse",47.3598631991991,8.59452368417579
1368,8591262,"Zürich, Löwenplatz",47.3758950301558,8.53741778155637
1369,8591263,"Zürich, Luchswiesen",47.4068740601267,8.58587290798852
1370,8591264,"Zürich, Luegisland",47.4060107375098,8.58139031472014
1371,8591265,"Zürich, Letzibach",47.3890818922336,8.49469390663769
1372,8591266,"Zürich, Maienweg",47.4078468010511,8.52638646986584
1373,8591267,"Zürich, Maillartstrasse",47.4162055528328,8.53209975507364
1374,8591268,"Zürich, Manegg",47.3369660452942,8.52034979115572
1375,8591269,"Zürich, Manesseplatz",47.3654429508751,8.52163438201219
1376,8591270,"Zürich, Marbachweg",47.3303482449491,8.51537312448101
1377,8591271,"Zürich, Mattenhof",47.3986415207903,8.59092143988597
1378,8591272,"Zürich, Max-Bill-Platz",47.4140476021462,8.54133443619567
1379,8591273,"Zürich, Messe/Hallenstadion",47.4109594512897,8.55009301021706
1380,8591274,"Zürich, Micafil",47.3930348751374,8.47451774535356
1381,8591275,"Zürich, Michelstrasse",47.4063268854622,8.49560120507478
1382,8591276,"Zürich, Milchbuck",47.3977902247233,8.54177461068495
1383,8591277,"Zürich, Militär-/Langstrasse",47.3795996063866,8.5276261449581
1384,8591278,"Zürich, Mittelleimbach",47.3231389520848,8.51429514613991
1385,8591279,"Zürich, Morgental",47.3439482343686,8.53014142775399
1386,8591280,"Zürich, Mötteliweg",47.413956419184,8.52645833508858
1387,8591281,"Zürich, Mühlacker",47.4261856841273,8.49637375621923
1388,8591282,"Zürich, Museum für Gestaltung",47.3821239221899,8.53493843137185
1389,8591283,"Zürich, Museum Rietberg",47.3607211928684,8.53156076590309
1390,8591284,"Zürich, Neeserweg",47.3905901422308,8.47472435786894
1391,8591285,"Zürich, Neuaffoltern",47.4118470092527,8.52503001378664
1392,8591286,"Zürich, Neubühl",47.3329297119064,8.53494741452469
1393,8591287,"Zürich, Neumarkt",47.3727742245616,8.54735314860011
1394,8591289,"Zürich, Neunbrunnen",47.4167039964751,8.5382082990065
1395,8591290,"Zürich, Nordheimstrasse",47.4035422863301,8.53052770332621
1396,8591291,"Zürich, Nordstrasse",47.3883277510495,8.53616014015842
1397,8591292,"Zürich, Nürenbergstrasse",47.3922564650255,8.53343824484716
1398,8591293,"Zürich, Oberwiesenstrasse",47.4104791910869,8.53281840730103
1399,8591294,"Zürich, Oerlikerhus",47.4175853791724,8.5542072942189
1400,8591296,"Zürich, Okenstrasse",47.3880114950836,8.53413893076887
1401,8591297,"Zürich, Orionstrasse",47.4167222321287,8.56616387065219
1402,8591298,"Zürich, Ottikerstrasse",47.385189434762,8.54241241453677
1403,8591299,"Zürich, Paradeplatz",47.3697323259786,8.53891796808105
1404,8591300,"Zürich, Stodolastrasse",47.3569057523862,8.59056211377228
1405,8591302,"Zürich, Pflegezentr. Käferberg",47.3996569773956,8.5176997610672
1406,8591303,"Zürich, Platte",47.3750068664689,8.55264422562431
1407,8591304,"Zürich, Post Wollishofen",47.3444717091534,8.53296213774651
1408,8591305,"Zürich, Probstei",47.4002224627097,8.58659156021591
1409,8591306,"Zürich, Quellenstrasse",47.3867403702341,8.52874903906341
1410,8591307,"Zürich, Radiostudio",47.4019796847888,8.53518995965144
1411,8591308,"Zürich, Räffelstrasse",47.3627474629542,8.51466345540645
1412,8591309,"Zürich, Rathaus",47.371739998729,8.54287953848457
1413,8591310,"Zürich, Rautihalde",47.3861747402307,8.47410452032281
1414,8591311,"Zürich, Rautistrasse",47.3833464991692,8.48409378628361
1415,8591312,"Zürich, Rebbergsteig",47.396902429888,8.5149688826031
1416,8591314,"Zürich, Regensbergbrücke",47.4088256034733,8.53927729419475
1417,8591315,"Zürich, Rehalp",47.3510268782417,8.58298033277325
1418,8591316,"Zürich, Rennweg",47.3730662375955,8.53845982728609
1419,8591317,"Zürich, Rentenanstalt",47.3633863608069,8.53503724605312
1420,8591318,"Zürich, Riedbach",47.4144791993582,8.5581868309281
1421,8591319,"Zürich, Riedgraben",47.4108013914533,8.55883361793276
1422,8591320,"Zürich, Riedhofstrasse",47.4099259745393,8.47957526040386
1423,8591322,"Zürich, Röntgenstrasse",47.3819353630178,8.52926107877543
1424,8591323,"Zürich, Rosengartenstrasse",47.394330172729,8.52546120512307
1425,8591324,"Zürich, Röslistrasse",47.388662250487,8.54049900298133
1426,8591325,"Zürich, Roswiesen",47.4029525160966,8.5769795866745
1427,8591326,"Zürich, Rotbuchstrasse",47.3912773547304,8.53611522439421
1428,8591327,"Zürich, Rudolf-Brun-Brücke",47.373948350482,8.54293343740163
1429,8591328,"Zürich, Rütihof",47.413451870606,8.47731150588756
1430,8591329,"Zürich, Saalsporthalle",47.3578611597087,8.52040369007277
1431,8591330,"Zürich, Saatlenstrasse",47.4108074706865,8.56286705355902
1432,8591331,"Zürich, Sackzelg",47.3743863596743,8.49551137354636
1433,8591332,"Zürich, Salersteig",47.406083694898,8.54847604270542
1434,8591333,"Zürich, Salzweg",47.3877074010192,8.47176890058377
1435,8591334,"Zürich, SBB-Werkstätte",47.386563991637,8.5033716322835
1436,8591335,"Zürich, Schaffhauserplatz",47.39163007979,8.53871135556568
1437,8591336,"Zürich, Schäppiweg",47.3897387160861,8.55089251082004
1438,8591338,"Zürich, Schauenberg",47.4161994742227,8.50692896080911
1439,8591339,"Zürich, Scheuchzerstrasse",47.3877925475341,8.54423599456378
1440,8591340,"Zürich, Schlyfi",47.3625892584812,8.57414091037628
1441,8591341,"Zürich, Schmiede Wiedikon",47.3701521184186,8.51926282966178
1442,8591342,"Zürich, Schönauring",47.4261309869807,8.53634878636812
1443,8591343,"Zürich, Schörlistrasse",47.4059438598151,8.56387316667737
1444,8591344,"Zürich, Schulhaus Altweg",47.3722753652215,8.49419983323136
1445,8591345,"Zürich, Schulhaus Buchlern",47.3846663638813,8.47857813043835
1446,8591346,"Zürich, Schumacherweg",47.412096252292,8.51478921954625
1447,8591347,"Zürich, Schürgistrasse",47.4088377623952,8.57959368415165
1448,8591348,"Zürich, Schützenhaus Höngg",47.4097314354713,8.49704749268242
1449,8591349,"Zürich, Schwamendingerplatz",47.4045941281927,8.57189512216567
1450,8591350,"Zürich, Schwandenholz",47.4238579664084,8.52068216781089
1451,8591351,"Zürich, Schweighof",47.3647736552158,8.50269789582032
1452,8591352,"Zürich, Schweizer Rück",47.3598814545288,8.53551335315377
1453,8591353,"Zürich, Schwert",47.3997299435837,8.5046202905286
1454,8591354,"Zürich, Seebach",47.4218644344265,8.54977859986757
1455,8591355,"Zürich, Seebacherplatz",47.419864748766,8.54836824487131
1456,8591357,"Zürich, Seerose",47.3389140897814,8.53813643378376
1457,8591358,"Zürich, Segantinistrasse",47.4074455475966,8.48996876824257
1458,8591360,"Zürich, Segeten",47.3557495038281,8.59430808850758
1459,8591361,"Zürich, Seidelhof",47.3919219883989,8.48372547701707
1460,8591362,"Zürich, Seilbahn Rigiblick",47.3859132103277,8.54836824487131
1461,8591363,"Zürich, Siemens",47.3784621041015,8.49402017017451
1462,8591364,"Zürich, Signaustrasse",47.3632281582498,8.55762089229903
1463,8591365,"Zürich, Sihlcity",47.3579706957486,8.52226320271116
1464,8591366,"Zürich, Sihlcity Nord",47.3600640074787,8.52302677070277
1465,8591367,"Zürich, Sihlpost/HB",47.3760957774096,8.53420181283877
1466,8591368,"Zürich, Sihlquai/HB",47.3798733332196,8.53760642776606
1467,8591369,"Zürich, Sihlstrasse",47.3722692815419,8.53457012210531
1468,8591370,"Zürich, Sihlweidstrasse",47.3264149182794,8.51466345540645
1469,8591371,"Zürich, Singlistrasse",47.4051109214132,8.49349016415681
1470,8591372,"Zürich, Solidapark",47.3877256467126,8.48849553117641
1471,8591373,"Zürich, Sonneggstrasse",47.3828416573855,8.54368802224039
1472,8591374,"Zürich, Sportweg",47.3916239983435,8.50585996562086
1473,8591375,"Zürich, Sprecherstrasse",47.3674933765347,8.55225795005209
1474,8591376,"Zürich, Spyriplatz",47.3822820680724,8.55197947231397
1475,8591377,"Zürich, Spyristeig",47.3862538071552,8.55620155414992
1476,8591378,"Zürich, Stadtgrenze",47.3350422808333,8.54146918348831
1477,8591379,"Zürich, Stampfenbachplatz",47.3802930449369,8.54278072380331
1478,8591380,"Zürich, Staudenbühl",47.4200835630557,8.53538758901397
1479,8591381,"Zürich, Stauffacher",47.3734251680677,8.52925209562258
1480,8591382,"Zürich, Sternen Oerlikon",47.4100718783688,8.54623025449481
1481,8591383,"Zürich, Stierenried",47.4166188966751,8.53548640369524
1482,8591384,"Zürich, Stockerstrasse",47.3678705975006,8.53542352162534
1483,8591385,"Zürich, Strassenverkehrsamt",47.3531508948792,8.51132172254906
1484,8591386,"Zürich, Strickhof",47.3935761066419,8.54751484535128
1485,8591387,"Zürich, Sukkulentensammlung",47.3549279434034,8.53430062752004
1486,8591389,"Zürich, Susenbergstrasse",47.3785350996374,8.5680054169849
1487,8591390,"Zürich, Talwiesenstrasse",47.3699452645904,8.50965085612037
1488,8591391,"Zürich, Technopark",47.3890575652671,8.51535515817532
1489,8591392,"Zürich, Thujastrasse",47.3501869856148,8.52780580801495
1490,8591393,"Zürich, Tierspital",47.4019006414559,8.55179980925712
1491,8591394,"Zürich, Titlisstrasse",47.3709734417894,8.56495114501846
1492,8591396,"Zürich, Tobelhof",47.3830849552342,8.58599867212831
1493,8591397,"Zürich, Toblerplatz",47.3790886458292,8.55934565764478
1494,8591398,"Zürich, Toni-Areal",47.390042798431,8.51058510401598
1495,8591399,"Zürich, Trichtenhausenfussweg",47.3541976567323,8.59860203556626
1496,8591400,"Zürich, Trichtisal",47.3539116250318,8.60107240259794
1497,8591401,"Zürich, Triemlispital",47.3659662124757,8.49689477908409
1498,8591402,"Zürich, Tüffenwies",47.3979240007304,8.49472085609622
1499,8591404,"Zürich, Tunnelstrasse",47.3661426599847,8.53253094641008
1500,8591405,"Zürich, Uetlihof",47.3567353594536,8.51396276948474
1501,8591406,"Zürich, Universität Irchel",47.3961605624575,8.54482888265138
1502,8591407,"Zürich, Unteraffoltern",47.4245872885157,8.51184274541392
1503,8591408,"Zürich, Untermoosstrasse",47.3798307535834,8.48338411720906
1504,8591410,"Zürich, Verenastrasse",47.3408255385719,8.52538035674749
1505,8591411,"Zürich, Vogelsangstrasse",47.3835411356741,8.54906893079302
1506,8591412,"Zürich, Voltastrasse",47.3768683430438,8.55452170456838
1507,8591413,"Zürich, Vulkanstrasse",47.3943484161296,8.48408480313077
1508,8591414,"Zürich, Waffenplatz-/Bederstr.",47.3616643612987,8.5265032508528
1509,8591415,"Zürich, Waffenplatzstrasse",47.3614818138862,8.52574866601403
1510,8591416,"Zürich, Waidbadstrasse",47.3989759547678,8.51354056130115
1511,8591417,"Zürich, Waidfussweg",47.3954977376399,8.51840044698891
1512,8591418,"Zürich, Waidhof",47.4238640441344,8.52304473700845
1513,8591419,"Zürich, Waidspital",47.3991644529834,8.52170624723493
1514,8591420,"Zürich, Waldgarten",47.4037186081076,8.55719868411543
1515,8591421,"Zürich, Waldhaus Dolder",47.3732426613532,8.56854440615544
1516,8591423,"Zürich, Wartau",47.4027701115948,8.49163065151842
1517,8591424,"Zürich, Waserstrasse",47.3583175583747,8.58405831111435
1518,8591425,"Zürich, Weihersteig",47.3977902247233,8.5285154770895
1519,8591427,"Zürich, Werd",47.3723240346332,8.52684461066081
1520,8591428,"Zürich, Werdhölzli",47.3978327898533,8.482018677977
1521,8591429,"Zürich, Wetlistrasse",47.3601552837168,8.56862525453102
1522,8591430,"Zürich, Widmerstrasse",47.336777324666,8.53289027252377
1523,8591431,"Zürich, Wieslergasse",47.4040651698812,8.49596053118848
1524,8591432,"Zürich, Wiesliacher",47.3552139695953,8.59680540499778
1525,8591433,"Zürich, Winkelriedstrasse",47.3831944388998,8.54821553127299
1526,8591434,"Zürich, Winzerhalde",47.4000582901792,8.4945681424979
1527,8591435,"Zürich, Winzerstrasse",47.4037672484941,8.48637550710559
1528,8591436,"Zürich, Winzerstrasse Süd",47.403372044054,8.486123978826
1529,8591437,"Zürich, Wipkingerplatz",47.3925909395293,8.52357474302616
1530,8591438,"Zürich, Buchzelgstrasse",47.3591816623693,8.58524408728955
1531,8591439,"Zürich, Wollishoferplatz",47.3384392605619,8.53015939405967
1532,8591440,"Zürich, Wonnebergstrasse",47.3518484994001,8.56654116307158
1533,8591441,"Zürich, Zielweg",47.3588226349632,8.49758648185296
1534,8591442,"Zürich, Zoo",47.3815704078655,8.57155376235766
1535,8591443,"Zürich, Zoo/Forrenweid",47.3804998581775,8.57808451447412
1536,8591444,"Zürich, Zürichbergstrasse",47.3787297539058,8.56410672865127
1537,8591445,"Zürich, Zweiackerstrasse",47.3570518030333,8.59788338333887
1538,8591446,"Zürich, Zwielplatz",47.4021864129448,8.49680494755567
1539,8591447,"Zürich, Zwinglihaus",47.3715088160635,8.51595702941576
1540,8591448,"Zürich, Zypressenstrasse",47.3766919314159,8.51376514012221
1541,8591824,"Zürich, Binz",47.3629665145182,8.51831959861333
1542,8591825,"Benglen, Bodenacher",47.3611288870976,8.63861299832652
1543,8591826,"Binz bei Maur, Gassacher",47.3570944010626,8.62796796220822
1544,8591828,"Ebmatingen, Dorf",47.3513920447801,8.64100251698261
1545,8591829,"Fahrweid, Au",47.4116463981448,8.41429468869781
1546,8591830,"Glattpark, Glattpark",47.4203813921555,8.556767492779
1547,8591831,"Gockhausen, Dorf",47.3820083537451,8.5980810127014
1548,8591832,"Pfaffhausen, Müseren",47.3626987847054,8.61754750491098
1549,8591833,"Unterengstringen, Sennenbüel",47.4131661602314,8.44875406300143
1550,8591857,"Uster, Loren-Allee",47.3582201936573,8.70960685524037
1551,8591891,"Spreitenbach, Altersheim",47.4188679166046,8.36849857550702
1552,8591893,"Dietikon, Gyrhalden",47.4006298515939,8.3914145984081
1553,8591896,"Zürich, Würzgraben",47.392092267674,8.49485560338886
1554,8591903,"Zollikerberg, Spital",47.3483489130904,8.59604183700617
1555,8593529,"Unterengstringen, Langwisen",47.4090444636384,8.44805337707972
1556,8594182,"Horgen, Wannerstrasse",47.2629480570162,8.59097533880303
1557,8594185,"Glattpark, Wright-Strasse",47.420521188907,8.55921091035214
1558,8594186,"Wallisellen, Haldenstrasse",47.4154578785224,8.59688625337336
1559,8594187,"Wallisellen, Friedhof",47.4152633598884,8.59365231835008
1560,8594188,"Wallisellen, Schulhaus Bürgli",47.4155308228249,8.59958119922609
1561,8594189,"Wallisellen, Säntisstrasse",47.4130263439513,8.60062324495581
1562,8594190,"Wallisellen, Guggenbühlstrasse",47.4136403170261,8.59694913544325
1563,8594198,"Wallisellen, Glatt (Tram)",47.4092937199409,8.59806304639572
1564,8594236,"Rümlang, Hörnlistrasse",47.4456846326835,8.53066245061885
1565,8594239,"Zürich, Schiffbau",47.3880297406717,8.51986470090223
1566,8594249,"Benglen, Langwis",47.3619625207141,8.63011493573756
1567,8594250,"Binz bei Maur, Bautacher",47.3583601553821,8.63003408736198
1568,8594252,"Kilchberg ZH, Breitloo",47.3261896259946,8.53943899094592
1569,8594253,"Kilchberg ZH, Emilienheim",47.3292096805095,8.5381454169366
1570,8594254,"Kilchberg ZH, Obere Hornhalde",47.3315659337644,8.53811846747808
1571,8594255,"Zürich, Schanzackerstrasse",47.3920253723101,8.54743399697569
1572,8594261,"Dübendorf, Hochbord Nord",47.4013898970616,8.60185393689523
1573,8594304,"Würenlos, Altwiesen",47.4340918626045,8.36221036851731
1574,8594307,"Würenlos, Lärchenweg",47.4384910970626,8.36438429150518
1575,8594310,"Würenlos, Steigass",47.4358965654313,8.36266850931227
1576,8594338,"Brüttisellen, Neuwisen",47.4161022163652,8.63455261324173
1577,8594339,"Illnau, Dorfplatz",47.4077312890063,8.7244290574304
1578,8594552,"Dielsdorf, Ruchwiesen",47.4810061637905,8.46390864184663
1579,8594553,"Opfikon, Schwimmbad",47.4326456250948,8.57155376235766
1580,8594732,"Unterengstringen, Sennenbüel N",47.4134944230824,8.44931101847766
1581,8595073,"Dietlikon, Fuchshalde",47.4202962982989,8.61275050129312
1582,8595074,"Dietlikon, Hinentalstrasse",47.4255414696816,8.608196042802
1583,8595075,"Dietlikon, In Lampitzäckern",47.4172267493723,8.61495137373952
1584,8595076,"Dietlikon, Klimmweg",47.430792195392,8.6175295386053
1585,8595077,"Dietlikon, Lettenstrasse",47.4245690555862,8.61186116916172
1586,8595078,"Dietlikon, Lindenstrasse",47.4307982723173,8.61942498385505
1587,8595080,"Dietlikon, Riedenerstrasse",47.4226302513737,8.61414288998369
1588,8595081,"Dietlikon, Zentrum",47.4230131556698,8.61824819083269
1589,8595082,"Effretikon, Oberkempttal",47.431308731542,8.70543867232147
1590,8595128,"Dietlikon, Pünten",47.4283188285141,8.61658630755684
1591,8595129,"Dietlikon, Rebackerweg",47.4285497620364,8.61953278168916
1592,8595143,"Otelfingen, Landstrasse",47.4593217018356,8.38672539262434
1593,8595267,"Nürensdorf, Zentrum",47.4467295577233,8.64821598871509
1594,8595356,"Buchs ZH, Furttalstrasse",47.4552947304422,8.43775868392227
1595,8595406,"Thalwil, Sonnenberg",47.2937557831495,8.55630036883119
1596,8595412,"Horgen, Bergwerk",47.2551625350948,8.61227439419247
1597,8595511,"Dietikon, Heimstrasse",47.4085398680001,8.40586849133159
1598,8595538,"Tagelswangen, Herdlen",47.4343410003471,8.67324305253415
1599,8595706,"Effretikon, Weiherstrasse",47.4335571239546,8.6898888347512
1600,8595707,"Nürensdorf, Zentrum Süd",47.4462192480878,8.64945566380735
1601,8595708,"Spreitenbach, Glattler",47.4208190155312,8.36300088596744
1602,8595709,"Rümlang, Heuelstrasse",47.452391232433,8.52846157817245
1603,8595710,"Rümlang, Ifangstrasse",47.4482604569246,8.53590861187884
1604,8595711,"Rümlang, Chilestieg",47.4468206839229,8.52554205349865
1605,8595712,"Rümlang, Hofwisenunterführung",47.4522636692208,8.53686980923298
1606,8595713,"Rümlang, Zürichweg",47.4488375700587,8.52713207155177
1607,8595714,"Regensdorf, Allmend",47.4485885009565,8.45665025434994
1608,8595717,"Adliswil, Grundstrasse",47.3129504950936,8.53005159622556
1609,8595723,"Herrliberg-Feldmeilen, Bhf Ost",47.2827938234153,8.61202286591288
1610,8595899,"Zürich, Glaubtenstrasse Nord",47.4147466662776,8.51964910523401
1611,8596003,"Dielsdorf, Gesundheitszentrum",47.4795612160888,8.45059560933413
1612,8596005,"Binz bei Maur, Twäracher",47.3608915729295,8.623476385787
1613,8596006,"Schlieren, Meuchwis",47.4002346236175,8.43503678861101
1614,8596007,"Schlieren, Geissweid",47.397814547659,8.44423553712168
1615,8596008,"Zürich, Hermetschloo",47.3941477383748,8.47388892465459
1616,8596100,"Bassersdorf, Sportanlage",47.4444635021195,8.61071132559788
1617,8596113,"Dübendorf, Hochbord Süd",47.3990063577514,8.60046154820465
1618,8596126,"Zürich, Bus Station",47.3810655490734,8.53730100056942
1619,8502758,Post,47.2447475336943,8.5329801040522
1620,8503004,Zürich Tiefenbrunnen,47.3501261233109,8.56139381649285
1621,8503088,Zürich HB SZU,47.3773914912976,8.53935814257034
1622,8503307,Bassersdorf,47.4385700854802,8.62622523055678
1623,8583870,Bahnhof Süd,47.3571735115972,8.43701308223635
1624,8590279,Shopping Center,47.4204482515178,8.3685165418127
1625,8590464,Bahnhof,47.3117811023922,8.52431136155924
